Suburb,Address,Rooms,Type,Price,Date,Postcode,Regionname,Propertycount,Distance,CouncilArea,address,latitude,longitude,geometry,School_Name,School_Rank
Blackburn,4 Rosalind Cr,3,h,1110000.0,1/04/2017,3130,Eastern Metropolitan,5713,13.4,Whitehorse City Council,"4 Rosalind Cr,Blackburn,3130,Victoria,Australia",-37.8286738,145.15928080000003,POINT (145.1592808 -37.8286738),Box Hill High School,1
Blackburn South,47A Canora St,3,h,980000.0,1/04/2017,3130,Eastern Metropolitan,4387,13.4,Whitehorse City Council,"47A Canora St,Blackburn South,3130,Victoria,Australia",-37.838747,145.13988500000002,POINT (145.139885 -37.838747),Box Hill High School,1
Blackburn South,34 Lawrence St,4,h,1925000.0,1/04/2017,3130,Eastern Metropolitan,4387,13.4,Whitehorse City Council,"34 Lawrence St,Blackburn South,3130,Victoria,Australia",-37.8337997,145.14854069999998,POINT (145.1485407 -37.8337997),Box Hill High School,1
Box Hill,12/20 Ashted Rd,2,u,420000.0,1/04/2017,3128,Eastern Metropolitan,4605,10.9,Whitehorse City Council,"12/20 Ashted Rd,Box Hill,3128,Victoria,Australia",-37.823375399999996,145.1265634,POINT (145.1265634 -37.8233754),Box Hill High School,1
Surrey Hills,11 Shepherd St,4,h,1600000.0,1/04/2017,3127,Southern Metropolitan,5457,10.2,Boroondara City Council,"11 Shepherd St,Surrey Hills,3127,Victoria,Australia",-37.8323548,145.1085159,POINT (145.1085159 -37.8323548),Box Hill High School,1
Blackburn,4/5 Dewrang Cr,3,u,1095000.0,1/07/2017,3130,Eastern Metropolitan,5713,13.4,Whitehorse City Council,"4/5 Dewrang Cr,Blackburn,3130,Victoria,Australia",-37.8178473,145.1415199,POINT (145.1415199 -37.8178473),Box Hill High School,1
Blackburn,2/17 Tara Av,2,u,689000.0,1/09/2018,3130,Eastern Metropolitan,5713,13.4,Whitehorse City Council,"2/17 Tara Av,Blackburn,3130,Victoria,Australia",-37.815880299999996,145.14102580000002,POINT (145.1410258 -37.8158803),Box Hill High School,1
Box Hill,31 Sweetland Rd,8,h,1410000.0,1/09/2018,3128,Eastern Metropolitan,4605,10.9,Whitehorse City Council,"31 Sweetland Rd,Box Hill,3128,Victoria,Australia",-37.8243245,145.13367019999998,POINT (145.1336702 -37.8243245),Box Hill High School,1
Blackburn,41 Alandale Rd,4,h,1250000.0,2/06/2018,3130,Eastern Metropolitan,5713,13.4,Whitehorse City Council,"41 Alandale Rd,Blackburn,3130,Victoria,Australia",-37.827242600000005,145.1528392,POINT (145.1528392 -37.82724260000001),Box Hill High School,1
Blackburn South,23 Craig St,3,h,1290000.0,2/06/2018,3130,Eastern Metropolitan,4387,13.4,Whitehorse City Council,"23 Craig St,Blackburn South,3130,Victoria,Australia",-37.8315711,145.1387228,POINT (145.1387228 -37.8315711),Box Hill High School,1
Box Hill,27 Sweetland Rd,4,h,2060000.0,2/06/2018,3128,Eastern Metropolitan,4605,10.9,Whitehorse City Council,"27 Sweetland Rd,Box Hill,3128,Victoria,Australia",-37.8243245,145.13367019999998,POINT (145.1336702 -37.8243245),Box Hill High School,1
Blackburn,5 Boongarry Av,5,h,1670000.0,3/03/2018,3130,Eastern Metropolitan,5713,13.4,Whitehorse City Council,"5 Boongarry Av,Blackburn,3130,Victoria,Australia",-37.825566200000004,145.1470864,POINT (145.1470864 -37.8255662),Box Hill High School,1
Blackburn South,5 Abercromby Rd,4,h,1400000.0,3/03/2018,3130,Eastern Metropolitan,4387,13.4,Whitehorse City Council,"5 Abercromby Rd,Blackburn South,3130,Victoria,Australia",-37.8365461,145.1441781,POINT (145.1441781 -37.8365461),Box Hill High School,1
Blackburn South,2/134 Middleborough Rd,3,t,975000.0,3/03/2018,3130,Eastern Metropolitan,4387,13.4,Whitehorse City Council,"2/134 Middleborough Rd,Blackburn South,3130,Victoria,Australia",-37.83072670000001,145.1362805,POINT (145.1362805 -37.83072670000001),Box Hill High School,1
Box Hill,36 Ashted Rd,4,h,2128888.0,3/03/2018,3128,Eastern Metropolitan,4605,10.9,Whitehorse City Council,"36 Ashted Rd,Box Hill,3128,Victoria,Australia",-37.823375399999996,145.1265634,POINT (145.1265634 -37.8233754),Box Hill High School,1
Blackburn,3/4 Downing St,4,t,940000.0,3/09/2016,3130,Eastern Metropolitan,5713,13.4,Whitehorse City Council,"3/4 Downing St,Blackburn,3130,Victoria,Australia",-37.8186455,145.14569269999998,POINT (145.1456927 -37.8186455),Box Hill High School,1
Blackburn,49 Rosalind Cr,5,h,1442000.0,3/09/2016,3130,Eastern Metropolitan,5713,13.4,Whitehorse City Council,"49 Rosalind Cr,Blackburn,3130,Victoria,Australia",-37.8286738,145.15928080000003,POINT (145.1592808 -37.8286738),Box Hill High School,1
Box Hill,32 Margaret St,4,h,1620000.0,3/09/2016,3128,Eastern Metropolitan,4605,10.9,Whitehorse City Council,"32 Margaret St,Box Hill,3128,Victoria,Australia",-37.81454960000001,145.131838,POINT (145.131838 -37.81454960000001),Box Hill High School,1
Surrey Hills,2/33 Chestnut St,3,t,1110000.0,3/09/2016,3127,Southern Metropolitan,5457,10.2,Boroondara City Council,"2/33 Chestnut St,Surrey Hills,3127,Victoria,Australia",-37.834712200000006,145.1106925,POINT (145.1106925 -37.83471220000001),Box Hill High School,1
Blackburn,23 Naughton Gr,5,h,1350000.0,3/09/2017,3130,Eastern Metropolitan,5713,13.4,Whitehorse City Council,"23 Naughton Gr,Blackburn,3130,Victoria,Australia",-37.8289219,145.1568491,POINT (145.1568491 -37.8289219),Box Hill High School,1
Box Hill,20 Graham Pl,3,h,2831000.0,3/09/2017,3128,Eastern Metropolitan,4605,10.9,Whitehorse City Council,"20 Graham Pl,Box Hill,3128,Victoria,Australia",-37.81550479999999,145.1297837,POINT (145.1297837 -37.81550479999999),Box Hill High School,1
Box Hill,6 Parkside Av,2,h,1820000.0,3/09/2017,3128,Eastern Metropolitan,4605,10.9,Whitehorse City Council,"6 Parkside Av,Box Hill,3128,Victoria,Australia",-37.828403200000004,145.11865769999997,POINT (145.1186577 -37.8284032),Box Hill High School,1
Blackburn,31 Fuchsia St,4,h,2236000.0,8/10/2016,3130,Eastern Metropolitan,5713,13.4,Whitehorse City Council,"31 Fuchsia St,Blackburn,3130,Victoria,Australia",-37.822791200000005,145.14115,POINT (145.14115 -37.8227912),Box Hill High School,1
Blackburn South,1 Shields Ct,4,h,1210000.0,8/10/2016,3130,Eastern Metropolitan,4387,13.4,Whitehorse City Council,"1 Shields Ct,Blackburn South,3130,Victoria,Australia",-37.8341402,145.14505259999999,POINT (145.1450526 -37.8341402),Box Hill High School,1
Surrey Hills,8 Charles St,4,h,1530000.0,8/10/2016,3127,Southern Metropolitan,5457,10.2,Boroondara City Council,"8 Charles St,Surrey Hills,3127,Victoria,Australia",-37.8257843,145.1126591,POINT (145.1126591 -37.8257843),Box Hill High School,1
Surrey Hills,63 Shepherd St,4,h,1812500.0,8/10/2016,3127,Southern Metropolitan,5457,10.2,Boroondara City Council,"63 Shepherd St,Surrey Hills,3127,Victoria,Australia",-37.8323548,145.1085159,POINT (145.1085159 -37.8323548),Box Hill High School,1
Blackburn,11 Hirst St,3,h,1490000.0,9/09/2017,3130,Eastern Metropolitan,5713,13.4,Whitehorse City Council,"11 Hirst St,Blackburn,3130,Victoria,Australia",-37.8297234,145.1388894,POINT (145.1388894 -37.8297234),Box Hill High School,1
Blackburn South,230 Canterbury Rd,4,h,1250000.0,9/12/2017,3130,Eastern Metropolitan,4387,13.4,Whitehorse City Council,"230 Canterbury Rd,Blackburn South,3130,Victoria,Australia",-37.8310071,145.14096990000002,POINT (145.1409699 -37.8310071),Box Hill High School,1
Box Hill,1/121 Albion Rd,3,h,1202000.0,9/12/2017,3128,Eastern Metropolitan,4605,10.9,Whitehorse City Council,"1/121 Albion Rd,Box Hill,3128,Victoria,Australia",-37.82511220000001,145.1299608,POINT (145.1299608 -37.82511220000001),Box Hill High School,1
Blackburn,1/5 Vine St,4,t,1000000.0,10/02/2018,3130,Eastern Metropolitan,5713,13.4,Whitehorse City Council,"1/5 Vine St,Blackburn,3130,Victoria,Australia",-37.819716,145.1487315,POINT (145.1487315 -37.819716),Box Hill High School,1
Box Hill,1/2 Henry St,3,h,1280000.0,10/03/2018,3128,Eastern Metropolitan,4605,10.9,Whitehorse City Council,"1/2 Henry St,Box Hill,3128,Victoria,Australia",-37.822731299999994,145.1257996,POINT (145.1257996 -37.82273129999999),Box Hill High School,1
Blackburn,31 Eustace St,4,h,1425000.0,10/09/2016,3130,Eastern Metropolitan,5713,13.4,Whitehorse City Council,"31 Eustace St,Blackburn,3130,Victoria,Australia",-37.829879999999996,145.1516255,POINT (145.1516255 -37.82988),Box Hill High School,1
Blackburn,5/86 Main St,2,u,635000.0,10/09/2016,3130,Eastern Metropolitan,5713,13.4,Whitehorse City Council,"5/86 Main St,Blackburn,3130,Victoria,Australia",-37.8267177,145.1491477,POINT (145.1491477 -37.8267177),Box Hill High School,1
Blackburn,53 Salisbury Av,2,u,837000.0,10/09/2016,3130,Eastern Metropolitan,5713,13.4,Whitehorse City Council,"53 Salisbury Av,Blackburn,3130,Victoria,Australia",-37.822709700000004,145.1405991,POINT (145.1405991 -37.8227097),Box Hill High School,1
Blackburn South,37 Indra Rd,3,h,819000.0,10/09/2016,3130,Eastern Metropolitan,4387,13.4,Whitehorse City Council,"37 Indra Rd,Blackburn South,3130,Victoria,Australia",-37.837805700000004,145.1401314,POINT (145.1401314 -37.8378057),Box Hill High School,1
Box Hill,18 Glenmore St,4,h,1560000.0,10/09/2016,3128,Eastern Metropolitan,4605,10.9,Whitehorse City Council,"18 Glenmore St,Box Hill,3128,Victoria,Australia",-37.823375399999996,145.1265634,POINT (145.1265634 -37.8233754),Box Hill High School,1
Surrey Hills,255 Elgar Rd,4,h,1300000.0,10/09/2016,3127,Southern Metropolitan,5457,10.2,Boroondara City Council,"255 Elgar Rd,Surrey Hills,3127,Victoria,Australia",-37.8376607,145.1110159,POINT (145.1110159 -37.8376607),Box Hill High School,1
Blackburn,8/11 Main St,2,u,620000.0,10/12/2016,3130,Eastern Metropolitan,5713,13.4,Whitehorse City Council,"8/11 Main St,Blackburn,3130,Victoria,Australia",-37.8267177,145.1491477,POINT (145.1491477 -37.8267177),Box Hill High School,1
Blackburn,2/1 Park St,3,u,840000.0,10/12/2016,3130,Eastern Metropolitan,5713,13.4,Whitehorse City Council,"2/1 Park St,Blackburn,3130,Victoria,Australia",-37.8227768,145.1378436,POINT (145.1378436 -37.8227768),Box Hill High School,1
Blackburn South,1/9 Barrina St,3,u,870000.0,10/12/2016,3130,Eastern Metropolitan,4387,13.4,Whitehorse City Council,"1/9 Barrina St,Blackburn South,3130,Victoria,Australia",-37.835542700000005,145.1408658,POINT (145.1408658 -37.8355427),Box Hill High School,1
Blackburn South,35 Lawrence St,3,h,1300000.0,10/12/2016,3130,Eastern Metropolitan,4387,13.4,Whitehorse City Council,"35 Lawrence St,Blackburn South,3130,Victoria,Australia",-37.8337997,145.14854069999998,POINT (145.1485407 -37.8337997),Box Hill High School,1
Blackburn South,2 School St,3,h,1051500.0,10/12/2016,3130,Eastern Metropolitan,4387,13.4,Whitehorse City Council,"2 School St,Blackburn South,3130,Victoria,Australia",-37.8321502,145.1408126,POINT (145.1408126 -37.8321502),Box Hill High School,1
Box Hill,3 Alexander St,3,h,1715000.0,10/12/2016,3128,Eastern Metropolitan,4605,10.9,Whitehorse City Council,"3 Alexander St,Box Hill,3128,Victoria,Australia",-37.8254451,145.1202997,POINT (145.1202997 -37.8254451),Box Hill High School,1
Box Hill,21 Barkly St,3,h,1200000.0,10/12/2016,3128,Eastern Metropolitan,4605,10.9,Whitehorse City Council,"21 Barkly St,Box Hill,3128,Victoria,Australia",-37.8275158,145.1300238,POINT (145.1300238 -37.8275158),Box Hill High School,1
Box Hill,17 Combarton St,3,h,1760000.0,10/12/2016,3128,Eastern Metropolitan,4605,10.9,Whitehorse City Council,"17 Combarton St,Box Hill,3128,Victoria,Australia",-37.8263313,145.1278595,POINT (145.1278595 -37.8263313),Box Hill High School,1
Surrey Hills,20 Everton Gr,5,h,2630000.0,10/12/2016,3127,Southern Metropolitan,5457,10.2,Boroondara City Council,"20 Everton Gr,Surrey Hills,3127,Victoria,Australia",-37.8269244,145.105953,POINT (145.105953 -37.8269244),Box Hill High School,1
Box Hill,4/10 Victoria St,3,u,975000.0,15/09/2018,3128,Eastern Metropolitan,4605,10.9,Whitehorse City Council,"4/10 Victoria St,Box Hill,3128,Victoria,Australia",-37.82511220000001,145.1299608,POINT (145.1299608 -37.82511220000001),Box Hill High School,1
Blackburn,13 Acacia Av,4,h,2000000.0,15/10/2016,3130,Eastern Metropolitan,5713,13.4,Whitehorse City Council,"13 Acacia Av,Blackburn,3130,Victoria,Australia",-37.8255187,145.14420249999998,POINT (145.1442025 -37.8255187),Box Hill High School,1
Blackburn,1/8 Duckham St,3,t,1258000.0,15/10/2016,3130,Eastern Metropolitan,5713,13.4,Whitehorse City Council,"1/8 Duckham St,Blackburn,3130,Victoria,Australia",-37.828465,145.13662769999996,POINT (145.1366277 -37.828465),Box Hill High School,1
Box Hill,1/14 Barkly St,4,t,975000.0,15/10/2016,3128,Eastern Metropolitan,4605,10.9,Whitehorse City Council,"1/14 Barkly St,Box Hill,3128,Victoria,Australia",-37.8275158,145.1300238,POINT (145.1300238 -37.8275158),Box Hill High School,1
Box Hill,23 Bass St,3,h,1325000.0,15/10/2016,3128,Eastern Metropolitan,4605,10.9,Whitehorse City Council,"23 Bass St,Box Hill,3128,Victoria,Australia",-37.8255807,145.1213554,POINT (145.1213554 -37.8255807),Box Hill High School,1
Box Hill,3/14 Bedford St,3,t,750000.0,15/10/2016,3128,Eastern Metropolitan,4605,10.9,Whitehorse City Council,"3/14 Bedford St,Box Hill,3128,Victoria,Australia",-37.827673600000004,145.1315159,POINT (145.1315159 -37.8276736),Box Hill High School,1
Box Hill,5 Wavell St,3,h,1400000.0,15/10/2016,3128,Eastern Metropolitan,4605,10.9,Whitehorse City Council,"5 Wavell St,Box Hill,3128,Victoria,Australia",-37.8293752,145.12728280000002,POINT (145.1272828 -37.8293752),Box Hill High School,1
Box Hill,22 William St,3,h,1500000.0,15/10/2016,3128,Eastern Metropolitan,4605,10.9,Whitehorse City Council,"22 William St,Box Hill,3128,Victoria,Australia",-37.82084329999999,145.1280162,POINT (145.1280162 -37.82084329999999),Box Hill High School,1
Blackburn,356 Middleborough Rd,3,h,899000.0,16/04/2016,3130,Eastern Metropolitan,5713,13.4,Whitehorse City Council,"356 Middleborough Rd,Blackburn,3130,Victoria,Australia",-37.8303512,145.1363523,POINT (145.1363523 -37.8303512),Box Hill High School,1
Blackburn South,8 Cluney Ct,5,h,1075000.0,16/04/2016,3130,Eastern Metropolitan,4387,13.4,Whitehorse City Council,"8 Cluney Ct,Blackburn South,3130,Victoria,Australia",-37.8368711,145.1450274,POINT (145.1450274 -37.8368711),Box Hill High School,1
Blackburn South,40 Indra Rd,4,h,911000.0,16/04/2016,3130,Eastern Metropolitan,4387,13.4,Whitehorse City Council,"40 Indra Rd,Blackburn South,3130,Victoria,Australia",-37.837805700000004,145.1401314,POINT (145.1401314 -37.8378057),Box Hill High School,1
Box Hill,55 Albion Rd,4,h,1600000.0,16/04/2016,3128,Eastern Metropolitan,4605,10.9,Whitehorse City Council,"55 Albion Rd,Box Hill,3128,Victoria,Australia",-37.82511220000001,145.1299608,POINT (145.1299608 -37.82511220000001),Box Hill High School,1
Blackburn,2/21 Laburnum St,3,u,1120000.0,16/06/2018,3130,Eastern Metropolitan,5713,13.4,Whitehorse City Council,"2/21 Laburnum St,Blackburn,3130,Victoria,Australia",-37.820516999999995,145.1412523,POINT (145.1412523 -37.820517),Box Hill High School,1
Box Hill,11 Kangerong Rd,3,h,975000.0,16/06/2018,3128,Eastern Metropolitan,4605,10.9,Whitehorse City Council,"11 Kangerong Rd,Box Hill,3128,Victoria,Australia",-37.8183096,145.12742680000002,POINT (145.1274268 -37.8183096),Box Hill High School,1
Surrey Hills,7 Beech St,4,h,2190000.0,16/06/2018,3127,Southern Metropolitan,5457,10.2,Boroondara City Council,"7 Beech St,Surrey Hills,3127,Victoria,Australia",-37.834449299999996,145.1084298,POINT (145.1084298 -37.8344493),Box Hill High School,1
Box Hill,126 Carrington Rd,2,u,616000.0,16/07/2016,3128,Eastern Metropolitan,4605,10.9,Whitehorse City Council,"126 Carrington Rd,Box Hill,3128,Victoria,Australia",-37.82033679999999,145.1230303,POINT (145.1230303 -37.82033679999999),Box Hill High School,1
Box Hill,54 Watts St,4,h,1661000.0,16/07/2016,3128,Eastern Metropolitan,4605,10.9,Whitehorse City Council,"54 Watts St,Box Hill,3128,Victoria,Australia",-37.817685,145.12533090000002,POINT (145.1253309 -37.817685),Box Hill High School,1
Surrey Hills,7 Newton St,5,h,2100000.0,16/07/2016,3127,Southern Metropolitan,5457,10.2,Boroondara City Council,"7 Newton St,Surrey Hills,3127,Victoria,Australia",-37.83013,145.1089241,POINT (145.1089241 -37.83013),Box Hill High School,1
Blackburn,15 Banksia St,4,h,1760000.0,16/09/2017,3130,Eastern Metropolitan,5713,13.4,Whitehorse City Council,"15 Banksia St,Blackburn,3130,Victoria,Australia",-37.829256,145.1421365,POINT (145.1421365 -37.829256),Box Hill High School,1
Blackburn,2 Furness St,5,h,1900000.0,16/09/2017,3130,Eastern Metropolitan,5713,13.4,Whitehorse City Council,"2 Furness St,Blackburn,3130,Victoria,Australia",-37.8266365,145.1526368,POINT (145.1526368 -37.8266365),Box Hill High School,1
Blackburn,25 Jeffery St,4,h,2380000.0,16/09/2017,3130,Eastern Metropolitan,5713,13.4,Whitehorse City Council,"25 Jeffery St,Blackburn,3130,Victoria,Australia",-37.8274525,145.1568995,POINT (145.1568995 -37.8274525),Box Hill High School,1
Blackburn,352 Middleborough Rd,3,h,1040000.0,16/09/2017,3130,Eastern Metropolitan,5713,13.4,Whitehorse City Council,"352 Middleborough Rd,Blackburn,3130,Victoria,Australia",-37.8303512,145.1363523,POINT (145.1363523 -37.8303512),Box Hill High School,1
Blackburn South,152 Middleborough Rd,4,h,1100000.0,16/09/2017,3130,Eastern Metropolitan,4387,13.4,Whitehorse City Council,"152 Middleborough Rd,Blackburn South,3130,Victoria,Australia",-37.83072670000001,145.1362805,POINT (145.1362805 -37.83072670000001),Box Hill High School,1
Box Hill,45 Rose St,3,h,1725000.0,16/09/2017,3128,Eastern Metropolitan,4605,10.9,Whitehorse City Council,"45 Rose St,Box Hill,3128,Victoria,Australia",-37.824402899999995,145.1285225,POINT (145.1285225 -37.8244029),Box Hill High School,1
Surrey Hills,7/6 Park Rd,2,u,724000.0,16/09/2017,3127,Southern Metropolitan,5457,10.2,Boroondara City Council,"7/6 Park Rd,Surrey Hills,3127,Victoria,Australia",-37.837446,145.1111651,POINT (145.1111651 -37.837446),Box Hill High School,1
Surrey Hills,10 Pembroke St,5,h,2230000.0,16/09/2017,3127,Southern Metropolitan,5457,10.2,Boroondara City Council,"10 Pembroke St,Surrey Hills,3127,Victoria,Australia",-37.8300059,145.10776840000003,POINT (145.1077684 -37.8300059),Box Hill High School,1
Blackburn,36A Sheehans Rd,5,h,2250000.0,16/12/2017,3130,Eastern Metropolitan,5713,13.4,Whitehorse City Council,"36A Sheehans Rd,Blackburn,3130,Victoria,Australia",-37.8285025,145.1445031,POINT (145.1445031 -37.8285025),Box Hill High School,1
Blackburn South,180 Canterbury Rd,3,h,950000.0,16/12/2017,3130,Eastern Metropolitan,4387,13.4,Whitehorse City Council,"180 Canterbury Rd,Blackburn South,3130,Victoria,Australia",-37.8310071,145.14096990000002,POINT (145.1409699 -37.8310071),Box Hill High School,1
Blackburn South,38 Lawrence St,3,h,950000.0,16/12/2017,3130,Eastern Metropolitan,4387,13.4,Whitehorse City Council,"38 Lawrence St,Blackburn South,3130,Victoria,Australia",-37.8337997,145.14854069999998,POINT (145.1485407 -37.8337997),Box Hill High School,1
Blackburn,1 Orana St,3,h,1505000.0,17/02/2018,3130,Eastern Metropolitan,5713,13.4,Whitehorse City Council,"1 Orana St,Blackburn,3130,Victoria,Australia",-37.8290102,145.14015700000002,POINT (145.140157 -37.8290102),Box Hill High School,1
Blackburn South,1a Agnew St,3,t,1000000.0,17/02/2018,3130,Eastern Metropolitan,4387,13.4,Whitehorse City Council,"1a Agnew St,Blackburn South,3130,Victoria,Australia",-37.831878499999995,145.136148,POINT (145.136148 -37.83187849999999),Box Hill High School,1
Blackburn South,9 Wardle Cl,4,h,1250000.0,17/02/2018,3130,Eastern Metropolitan,4387,13.4,Whitehorse City Council,"9 Wardle Cl,Blackburn South,3130,Victoria,Australia",-37.8363765,145.1421054,POINT (145.1421054 -37.8363765),Box Hill High School,1
Surrey Hills,25A Chestnut St,3,t,1300000.0,17/02/2018,3127,Southern Metropolitan,5457,10.2,Boroondara City Council,"25A Chestnut St,Surrey Hills,3127,Victoria,Australia",-37.834712200000006,145.1106925,POINT (145.1106925 -37.83471220000001),Box Hill High School,1
Blackburn,10 Haydn St,4,h,1955000.0,17/03/2018,3130,Eastern Metropolitan,5713,13.4,Whitehorse City Council,"10 Haydn St,Blackburn,3130,Victoria,Australia",-37.827591399999996,145.1476802,POINT (145.1476802 -37.8275914),Box Hill High School,1
Blackburn,4B Pakenham St,4,h,1450000.0,17/03/2018,3130,Eastern Metropolitan,5713,13.4,Whitehorse City Council,"4B Pakenham St,Blackburn,3130,Victoria,Australia",-37.82181,145.14209,POINT (145.14209 -37.82181),Box Hill High School,1
Blackburn,2/8 Service Rd,3,u,1350000.0,17/03/2018,3130,Eastern Metropolitan,5713,13.4,Whitehorse City Council,"2/8 Service Rd,Blackburn,3130,Victoria,Australia",-37.8158267,145.1430906,POINT (145.1430906 -37.8158267),Box Hill High School,1
Blackburn South,45 Baratta St,3,h,1440000.0,17/03/2018,3130,Eastern Metropolitan,4387,13.4,Whitehorse City Council,"45 Baratta St,Blackburn South,3130,Victoria,Australia",-37.8381265,145.1428524,POINT (145.1428524 -37.8381265),Box Hill High School,1
Blackburn South,10 Barrina St,3,h,1300000.0,17/03/2018,3130,Eastern Metropolitan,4387,13.4,Whitehorse City Council,"10 Barrina St,Blackburn South,3130,Victoria,Australia",-37.835542700000005,145.1408658,POINT (145.1408658 -37.8355427),Box Hill High School,1
Box Hill,29 Albion Rd,6,h,4600000.0,17/03/2018,3128,Eastern Metropolitan,4605,10.9,Whitehorse City Council,"29 Albion Rd,Box Hill,3128,Victoria,Australia",-37.82511220000001,145.1299608,POINT (145.1299608 -37.82511220000001),Box Hill High School,1
Box Hill,3 Maple St,2,h,2000000.0,17/03/2018,3128,Eastern Metropolitan,4605,10.9,Whitehorse City Council,"3 Maple St,Box Hill,3128,Victoria,Australia",-37.8255381,145.12840880000002,POINT (145.1284088 -37.8255381),Box Hill High School,1
Surrey Hills,20 Erasmus St,3,h,2125000.0,17/03/2018,3127,Southern Metropolitan,5457,10.2,Boroondara City Council,"20 Erasmus St,Surrey Hills,3127,Victoria,Australia",-37.8302693,145.1100937,POINT (145.1100937 -37.8302693),Box Hill High School,1
Blackburn,75 Canterbury Rd,3,h,1112000.0,17/06/2017,3130,Eastern Metropolitan,5713,13.4,Whitehorse City Council,"75 Canterbury Rd,Blackburn,3130,Victoria,Australia",-37.8320213,145.1499747,POINT (145.1499747 -37.8320213),Box Hill High School,1
Blackburn South,4 Barker St,3,h,1300000.0,17/06/2017,3130,Eastern Metropolitan,4387,13.4,Whitehorse City Council,"4 Barker St,Blackburn South,3130,Victoria,Australia",-37.8365113,145.1363934,POINT (145.1363934 -37.8365113),Box Hill High School,1
Blackburn,2/334 Middleborough Rd,3,u,642000.0,17/09/2016,3130,Eastern Metropolitan,5713,13.4,Whitehorse City Council,"2/334 Middleborough Rd,Blackburn,3130,Victoria,Australia",-37.8303512,145.1363523,POINT (145.1363523 -37.8303512),Box Hill High School,1
Blackburn South,35 Aberdeen Rd,4,h,1342000.0,17/09/2016,3130,Eastern Metropolitan,4387,13.4,Whitehorse City Council,"35 Aberdeen Rd,Blackburn South,3130,Victoria,Australia",-37.8307489,145.1395319,POINT (145.1395319 -37.8307489),Box Hill High School,1
Box Hill,12 Barcelona St,4,h,1461400.0,17/09/2016,3128,Eastern Metropolitan,4605,10.9,Whitehorse City Council,"12 Barcelona St,Box Hill,3128,Victoria,Australia",-37.823327899999995,145.13167040000002,POINT (145.1316704 -37.8233279),Box Hill High School,1
Box Hill,2/4 Collins St,3,u,775000.0,17/09/2016,3128,Eastern Metropolitan,4605,10.9,Whitehorse City Council,"2/4 Collins St,Box Hill,3128,Victoria,Australia",-37.827397999999995,145.12523159999998,POINT (145.1252316 -37.827398),Box Hill High School,1
Box Hill,12 Pendle St,4,h,1506000.0,17/09/2016,3128,Eastern Metropolitan,4605,10.9,Whitehorse City Council,"12 Pendle St,Box Hill,3128,Victoria,Australia",-37.8165586,145.13559009999997,POINT (145.1355901 -37.8165586),Box Hill High School,1
Box Hill,33 Pendle St,4,h,1670000.0,17/09/2016,3128,Eastern Metropolitan,4605,10.9,Whitehorse City Council,"33 Pendle St,Box Hill,3128,Victoria,Australia",-37.8165586,145.13559009999997,POINT (145.1355901 -37.8165586),Box Hill High School,1
Surrey Hills,38 Park Rd,4,h,1250000.0,17/09/2016,3127,Southern Metropolitan,5457,10.2,Boroondara City Council,"38 Park Rd,Surrey Hills,3127,Victoria,Australia",-37.837446,145.1111651,POINT (145.1111651 -37.837446),Box Hill High School,1
Blackburn,5 Arna St,3,h,1431000.0,18/03/2017,3130,Eastern Metropolitan,5713,13.4,Whitehorse City Council,"5 Arna St,Blackburn,3130,Victoria,Australia",-37.829173,145.1503622,POINT (145.1503622 -37.829173),Box Hill High School,1
Blackburn,21 Hillside Cr,3,h,1540000.0,18/03/2017,3130,Eastern Metropolitan,5713,13.4,Whitehorse City Council,"21 Hillside Cr,Blackburn,3130,Victoria,Australia",-37.822655499999996,145.13933740000002,POINT (145.1393374 -37.8226555),Box Hill High School,1
Blackburn,45 Rosalind Cr,3,h,1120000.0,18/03/2017,3130,Eastern Metropolitan,5713,13.4,Whitehorse City Council,"45 Rosalind Cr,Blackburn,3130,Victoria,Australia",-37.8286738,145.15928080000003,POINT (145.1592808 -37.8286738),Box Hill High School,1
Blackburn South,1/19 Barrina St,3,u,780000.0,18/03/2017,3130,Eastern Metropolitan,4387,13.4,Whitehorse City Council,"1/19 Barrina St,Blackburn South,3130,Victoria,Australia",-37.835542700000005,145.1408658,POINT (145.1408658 -37.8355427),Box Hill High School,1
Box Hill,7/12 Oxford St,1,u,340000.0,18/03/2017,3128,Eastern Metropolitan,4605,10.9,Whitehorse City Council,"7/12 Oxford St,Box Hill,3128,Victoria,Australia",-37.8215957,145.1191885,POINT (145.1191885 -37.8215957),Box Hill High School,1
Surrey Hills,3/251 Elgar Rd,3,t,1080000.0,18/03/2017,3127,Southern Metropolitan,5457,10.2,Boroondara City Council,"3/251 Elgar Rd,Surrey Hills,3127,Victoria,Australia",-37.8376607,145.1110159,POINT (145.1110159 -37.8376607),Box Hill High School,1
Surrey Hills,26 Newton St,4,h,2060000.0,18/03/2017,3127,Southern Metropolitan,5457,10.2,Boroondara City Council,"26 Newton St,Surrey Hills,3127,Victoria,Australia",-37.83013,145.1089241,POINT (145.1089241 -37.83013),Box Hill High School,1
Blackburn,1 Banksia St,4,h,1160000.0,18/06/2016,3130,Eastern Metropolitan,5713,13.4,Whitehorse City Council,"1 Banksia St,Blackburn,3130,Victoria,Australia",-37.8284115,145.14240759999998,POINT (145.1424076 -37.8284115),Box Hill High School,1
Box Hill,6 Archibald St,3,h,4000000.0,18/06/2016,3128,Eastern Metropolitan,4605,10.9,Whitehorse City Council,"6 Archibald St,Box Hill,3128,Victoria,Australia",-37.8168125,145.1221094,POINT (145.1221094 -37.8168125),Box Hill High School,1
Box Hill,19 Kent Rd,3,h,928000.0,18/06/2016,3128,Eastern Metropolitan,4605,10.9,Whitehorse City Council,"19 Kent Rd,Box Hill,3128,Victoria,Australia",-37.824359799999996,145.1188113,POINT (145.1188113 -37.8243598),Box Hill High School,1
Box Hill,2/20 Simpsons Rd,2,u,761000.0,18/06/2016,3128,Eastern Metropolitan,4605,10.9,Whitehorse City Council,"2/20 Simpsons Rd,Box Hill,3128,Victoria,Australia",-37.8153869,145.1342788,POINT (145.1342788 -37.8153869),Box Hill High School,1
Mont Albert,55 View St,4,h,2000000.0,18/06/2016,3127,Eastern Metropolitan,2079,10.2,Boroondara City Council,"55 View St,Mont Albert,3127,Victoria,Australia",-37.8256844,145.1094804,POINT (145.1094804 -37.8256844),Box Hill High School,1
Blackburn,1 Hillside Cr,3,h,1300000.0,18/08/2018,3130,Eastern Metropolitan,5713,13.4,Whitehorse City Council,"1 Hillside Cr,Blackburn,3130,Victoria,Australia",-37.822655499999996,145.13933740000002,POINT (145.1393374 -37.8226555),Box Hill High School,1
Blackburn,3 Hillside Cr,2,h,1150000.0,18/08/2018,3130,Eastern Metropolitan,5713,13.4,Whitehorse City Council,"3 Hillside Cr,Blackburn,3130,Victoria,Australia",-37.822655499999996,145.13933740000002,POINT (145.1393374 -37.8226555),Box Hill High School,1
Box Hill,1/22 Bass St,4,t,1150800.0,18/08/2018,3128,Eastern Metropolitan,4605,10.9,Whitehorse City Council,"1/22 Bass St,Box Hill,3128,Victoria,Australia",-37.8255807,145.1213554,POINT (145.1213554 -37.8255807),Box Hill High School,1
Box Hill,27 Pendle St,4,h,1635000.0,18/11/2017,3128,Eastern Metropolitan,4605,10.9,Whitehorse City Council,"27 Pendle St,Box Hill,3128,Victoria,Australia",-37.8165586,145.13559009999997,POINT (145.1355901 -37.8165586),Box Hill High School,1
Box Hill,2/1129 Whitehorse Rd,2,t,820000.0,18/11/2017,3128,Eastern Metropolitan,4605,10.9,Whitehorse City Council,"2/1129 Whitehorse Rd,Box Hill,3128,Victoria,Australia",-37.818487100000006,145.12538500000002,POINT (145.125385 -37.81848710000001),Box Hill High School,1
Surrey Hills,26 Everton Gr,4,h,1490000.0,20/05/2017,3127,Southern Metropolitan,5457,10.2,Boroondara City Council,"26 Everton Gr,Surrey Hills,3127,Victoria,Australia",-37.8269244,145.105953,POINT (145.105953 -37.8269244),Box Hill High School,1
Blackburn,19 Main St,5,h,1902000.0,21/04/2018,3130,Eastern Metropolitan,5713,13.4,Whitehorse City Council,"19 Main St,Blackburn,3130,Victoria,Australia",-37.8267177,145.1491477,POINT (145.1491477 -37.8267177),Box Hill High School,1
Blackburn,24 Walsham Rd,4,h,1750000.0,21/04/2018,3130,Eastern Metropolitan,5713,13.4,Whitehorse City Council,"24 Walsham Rd,Blackburn,3130,Victoria,Australia",-37.829047100000004,145.1534601,POINT (145.1534601 -37.8290471),Box Hill High School,1
Box Hill,201/95 Thames St,2,u,575000.0,21/04/2018,3128,Eastern Metropolitan,4605,10.9,Whitehorse City Council,"201/95 Thames St,Box Hill,3128,Victoria,Australia",-37.8144852,145.1313851,POINT (145.1313851 -37.8144852),Box Hill High School,1
Surrey Hills,8/355 Elgar Rd,2,u,508000.0,21/04/2018,3127,Southern Metropolitan,5457,10.2,Boroondara City Council,"8/355 Elgar Rd,Surrey Hills,3127,Victoria,Australia",-37.8376607,145.1110159,POINT (145.1110159 -37.8376607),Box Hill High School,1
Blackburn South,7 Agnew St,3,h,1340000.0,21/10/2017,3130,Eastern Metropolitan,4387,13.4,Whitehorse City Council,"7 Agnew St,Blackburn South,3130,Victoria,Australia",-37.831878499999995,145.136148,POINT (145.136148 -37.83187849999999),Box Hill High School,1
Box Hill,39 Court St,5,h,1941000.0,21/10/2017,3128,Eastern Metropolitan,4605,10.9,Whitehorse City Council,"39 Court St,Box Hill,3128,Victoria,Australia",-37.8182611,145.12642480000002,POINT (145.1264248 -37.8182611),Box Hill High School,1
Box Hill,10 Patricia St,2,h,1435000.0,21/10/2017,3128,Eastern Metropolitan,4605,10.9,Whitehorse City Council,"10 Patricia St,Box Hill,3128,Victoria,Australia",-37.8269686,145.1244863,POINT (145.1244863 -37.8269686),Box Hill High School,1
Box Hill,10/24 Rose St,2,u,695000.0,21/10/2017,3128,Eastern Metropolitan,4605,10.9,Whitehorse City Council,"10/24 Rose St,Box Hill,3128,Victoria,Australia",-37.824402899999995,145.1285225,POINT (145.1285225 -37.8244029),Box Hill High School,1
Box Hill,11 Victoria St,4,h,1782500.0,21/10/2017,3128,Eastern Metropolitan,4605,10.9,Whitehorse City Council,"11 Victoria St,Box Hill,3128,Victoria,Australia",-37.82511220000001,145.1299608,POINT (145.1299608 -37.82511220000001),Box Hill High School,1
Surrey Hills,20 Oak St,3,h,1980000.0,21/10/2017,3127,Southern Metropolitan,5457,10.2,Boroondara City Council,"20 Oak St,Surrey Hills,3127,Victoria,Australia",-37.833063700000004,145.1098475,POINT (145.1098475 -37.8330637),Box Hill High School,1
Box Hill,4/18 Barkly St,2,u,646500.0,22/04/2017,3128,Eastern Metropolitan,4605,10.9,Whitehorse City Council,"4/18 Barkly St,Box Hill,3128,Victoria,Australia",-37.8275158,145.1300238,POINT (145.1300238 -37.8275158),Box Hill High School,1
Box Hill,11 Howard St,3,h,2080000.0,22/04/2017,3128,Eastern Metropolitan,4605,10.9,Whitehorse City Council,"11 Howard St,Box Hill,3128,Victoria,Australia",-37.8225434,145.1196639,POINT (145.1196639 -37.8225434),Box Hill High School,1
Blackburn South,100 Middleborough Rd,3,h,715000.0,22/05/2016,3130,Eastern Metropolitan,4387,13.4,Whitehorse City Council,"100 Middleborough Rd,Blackburn South,3130,Victoria,Australia",-37.83072670000001,145.1362805,POINT (145.1362805 -37.83072670000001),Box Hill High School,1
Surrey Hills,16 Pembroke St,4,h,1650000.0,22/05/2016,3127,Southern Metropolitan,5457,10.2,Boroondara City Council,"16 Pembroke St,Surrey Hills,3127,Victoria,Australia",-37.8300059,145.10776840000003,POINT (145.1077684 -37.8300059),Box Hill High School,1
Blackburn,488 Middleborough Rd,3,h,1020000.0,22/07/2017,3130,Eastern Metropolitan,5713,13.4,Whitehorse City Council,"488 Middleborough Rd,Blackburn,3130,Victoria,Australia",-37.8303512,145.1363523,POINT (145.1363523 -37.8303512),Box Hill High School,1
Blackburn South,2A Stewart Av,3,h,874000.0,22/07/2017,3130,Eastern Metropolitan,4387,13.4,Whitehorse City Council,"2A Stewart Av,Blackburn South,3130,Victoria,Australia",-37.835542700000005,145.1482569,POINT (145.1482569 -37.8355427),Box Hill High School,1
Surrey Hills,15 Charles St,2,h,1950000.0,22/07/2017,3127,Southern Metropolitan,5457,10.2,Boroondara City Council,"15 Charles St,Surrey Hills,3127,Victoria,Australia",-37.8257843,145.1126591,POINT (145.1126591 -37.8257843),Box Hill High School,1
Blackburn,21 Banksia St,3,h,1181000.0,22/08/2016,3130,Eastern Metropolitan,5713,13.4,Whitehorse City Council,"21 Banksia St,Blackburn,3130,Victoria,Australia",-37.829256,145.1421365,POINT (145.1421365 -37.829256),Box Hill High School,1
Blackburn,11 Lalwa St,2,h,1241000.0,22/08/2016,3130,Eastern Metropolitan,5713,13.4,Whitehorse City Council,"11 Lalwa St,Blackburn,3130,Victoria,Australia",-37.8310773,145.1501624,POINT (145.1501624 -37.8310773),Box Hill High School,1
Blackburn,28 Myrtle Gr,4,h,2250000.0,22/08/2016,3130,Eastern Metropolitan,5713,13.4,Whitehorse City Council,"28 Myrtle Gr,Blackburn,3130,Victoria,Australia",-37.8230682,145.1431917,POINT (145.1431917 -37.8230682),Box Hill High School,1
Blackburn South,82 Edinburgh Rd,4,h,926000.0,22/09/2018,3130,Eastern Metropolitan,4387,13.4,Whitehorse City Council,"82 Edinburgh Rd,Blackburn South,3130,Victoria,Australia",-37.8371576,145.1422933,POINT (145.1422933 -37.8371576),Box Hill High School,1
Blackburn South,27 Hunter Dr,3,h,900000.0,22/09/2018,3130,Eastern Metropolitan,4387,13.4,Whitehorse City Council,"27 Hunter Dr,Blackburn South,3130,Victoria,Australia",-37.833956799999996,145.14976819999998,POINT (145.1497682 -37.8339568),Box Hill High School,1
Surrey Hills,36 Newton St,3,h,1646000.0,22/09/2018,3127,Southern Metropolitan,5457,10.2,Boroondara City Council,"36 Newton St,Surrey Hills,3127,Victoria,Australia",-37.83013,145.1089241,POINT (145.1089241 -37.83013),Box Hill High School,1
Box Hill,3/5 Kent Rd,2,u,400000.0,23/04/2016,3128,Eastern Metropolitan,4605,10.9,Whitehorse City Council,"3/5 Kent Rd,Box Hill,3128,Victoria,Australia",-37.824359799999996,145.1188113,POINT (145.1188113 -37.8243598),Box Hill High School,1
Box Hill,5 Patricia St,3,h,1170000.0,23/04/2016,3128,Eastern Metropolitan,4605,10.9,Whitehorse City Council,"5 Patricia St,Box Hill,3128,Victoria,Australia",-37.8269686,145.1244863,POINT (145.1244863 -37.8269686),Box Hill High School,1
Blackburn South,5 Abercromby Rd,4,h,1305000.0,23/06/2018,3130,Eastern Metropolitan,4387,13.4,Whitehorse City Council,"5 Abercromby Rd,Blackburn South,3130,Victoria,Australia",-37.8365461,145.1441781,POINT (145.1441781 -37.8365461),Box Hill High School,1
Blackburn South,144 Middleborough Rd,4,h,1229000.0,23/09/2017,3130,Eastern Metropolitan,4387,13.4,Whitehorse City Council,"144 Middleborough Rd,Blackburn South,3130,Victoria,Australia",-37.83072670000001,145.1362805,POINT (145.1362805 -37.83072670000001),Box Hill High School,1
Box Hill,1/35 Kent Rd,2,u,466000.0,23/09/2017,3128,Eastern Metropolitan,4605,10.9,Whitehorse City Council,"1/35 Kent Rd,Box Hill,3128,Victoria,Australia",-37.824359799999996,145.1188113,POINT (145.1188113 -37.8243598),Box Hill High School,1
Box Hill,2/8 Simpsons Rd,2,u,653000.0,23/09/2017,3128,Eastern Metropolitan,4605,10.9,Whitehorse City Council,"2/8 Simpsons Rd,Box Hill,3128,Victoria,Australia",-37.8153869,145.1342788,POINT (145.1342788 -37.8153869),Box Hill High School,1
Surrey Hills,12 Arthur St,3,h,1465000.0,23/09/2017,3127,Southern Metropolitan,5457,10.2,Boroondara City Council,"12 Arthur St,Surrey Hills,3127,Victoria,Australia",-37.8260416,145.11101599999998,POINT (145.111016 -37.8260416),Box Hill High School,1
Surrey Hills,3 Arthur St,4,h,1910000.0,23/09/2017,3127,Southern Metropolitan,5457,10.2,Boroondara City Council,"3 Arthur St,Surrey Hills,3127,Victoria,Australia",-37.8260416,145.11101599999998,POINT (145.111016 -37.8260416),Box Hill High School,1
Blackburn,36A Sheehans Rd,5,h,2250000.0,23/12/2017,3130,Eastern Metropolitan,5713,13.4,Whitehorse City Council,"36A Sheehans Rd,Blackburn,3130,Victoria,Australia",-37.8285025,145.1445031,POINT (145.1445031 -37.8285025),Box Hill High School,1
Blackburn South,180 Canterbury Rd,3,h,950000.0,23/12/2017,3130,Eastern Metropolitan,4387,13.4,Whitehorse City Council,"180 Canterbury Rd,Blackburn South,3130,Victoria,Australia",-37.8310071,145.14096990000002,POINT (145.1409699 -37.8310071),Box Hill High School,1
Blackburn South,38 Lawrence St,3,h,950000.0,23/12/2017,3130,Eastern Metropolitan,4387,13.4,Whitehorse City Council,"38 Lawrence St,Blackburn South,3130,Victoria,Australia",-37.8337997,145.14854069999998,POINT (145.1485407 -37.8337997),Box Hill High School,1
Blackburn,4/100 Main St,2,u,580000.0,24/03/2018,3130,Eastern Metropolitan,5713,13.4,Whitehorse City Council,"4/100 Main St,Blackburn,3130,Victoria,Australia",-37.8267177,145.1491477,POINT (145.1491477 -37.8267177),Box Hill High School,1
Blackburn,2 Rosalind Cr,3,h,1400000.0,24/03/2018,3130,Eastern Metropolitan,5713,13.4,Whitehorse City Council,"2 Rosalind Cr,Blackburn,3130,Victoria,Australia",-37.8286738,145.15928080000003,POINT (145.1592808 -37.8286738),Box Hill High School,1
Blackburn South,33 Lawrence St,3,h,1325000.0,24/03/2018,3130,Eastern Metropolitan,4387,13.4,Whitehorse City Council,"33 Lawrence St,Blackburn South,3130,Victoria,Australia",-37.8337997,145.14854069999998,POINT (145.1485407 -37.8337997),Box Hill High School,1
Box Hill,44 Albion Rd,4,h,1428000.0,24/03/2018,3128,Eastern Metropolitan,4605,10.9,Whitehorse City Council,"44 Albion Rd,Box Hill,3128,Victoria,Australia",-37.82511220000001,145.1299608,POINT (145.1299608 -37.82511220000001),Box Hill High School,1
Box Hill,2/27 Bedford St,4,t,930000.0,24/03/2018,3128,Eastern Metropolitan,4605,10.9,Whitehorse City Council,"2/27 Bedford St,Box Hill,3128,Victoria,Australia",-37.827673600000004,145.1315159,POINT (145.1315159 -37.8276736),Box Hill High School,1
Box Hill,61 Combarton St,4,h,1730000.0,24/03/2018,3128,Eastern Metropolitan,4605,10.9,Whitehorse City Council,"61 Combarton St,Box Hill,3128,Victoria,Australia",-37.8263313,145.1278595,POINT (145.1278595 -37.8263313),Box Hill High School,1
Box Hill,3/39 Dorking Rd,3,u,898000.0,24/03/2018,3128,Eastern Metropolitan,4605,10.9,Whitehorse City Council,"3/39 Dorking Rd,Box Hill,3128,Victoria,Australia",-37.816224299999995,145.13115630000001,POINT (145.1311563 -37.81622429999999),Box Hill High School,1
Box Hill,28 Graham Pl,4,h,2780000.0,24/03/2018,3128,Eastern Metropolitan,4605,10.9,Whitehorse City Council,"28 Graham Pl,Box Hill,3128,Victoria,Australia",-37.81550479999999,145.1297837,POINT (145.1297837 -37.81550479999999),Box Hill High School,1
Surrey Hills,28 Bentley St,4,h,1715000.0,24/03/2018,3127,Southern Metropolitan,5457,10.2,Boroondara City Council,"28 Bentley St,Surrey Hills,3127,Victoria,Australia",-37.8302693,145.1100937,POINT (145.1100937 -37.8302693),Box Hill High School,1
Surrey Hills,25 Erasmus St,5,h,1900000.0,24/03/2018,3127,Southern Metropolitan,5457,10.2,Boroondara City Council,"25 Erasmus St,Surrey Hills,3127,Victoria,Australia",-37.8302693,145.1100937,POINT (145.1100937 -37.8302693),Box Hill High School,1
Surrey Hills,20 Tower St,4,h,1827000.0,24/03/2018,3127,Southern Metropolitan,5457,10.2,Boroondara City Council,"20 Tower St,Surrey Hills,3127,Victoria,Australia",-37.8262779,145.1082965,POINT (145.1082965 -37.8262779),Box Hill High School,1
Blackburn,1/10 Duckham St,3,h,880000.0,24/06/2017,3130,Eastern Metropolitan,5713,13.4,Whitehorse City Council,"1/10 Duckham St,Blackburn,3130,Victoria,Australia",-37.828465,145.13662769999996,POINT (145.1366277 -37.828465),Box Hill High School,1
Blackburn,2/5 Marian Ct,3,t,1300000.0,24/06/2017,3130,Eastern Metropolitan,5713,13.4,Whitehorse City Council,"2/5 Marian Ct,Blackburn,3130,Victoria,Australia",-37.8278023,145.1380447,POINT (145.1380447 -37.8278023),Box Hill High School,1
Blackburn South,14 Indra Rd,3,h,1264000.0,24/06/2017,3130,Eastern Metropolitan,4387,13.4,Whitehorse City Council,"14 Indra Rd,Blackburn South,3130,Victoria,Australia",-37.837805700000004,145.1401314,POINT (145.1401314 -37.8378057),Box Hill High School,1
Box Hill,57 Combarton St,6,h,2150500.0,24/06/2017,3128,Eastern Metropolitan,4605,10.9,Whitehorse City Council,"57 Combarton St,Box Hill,3128,Victoria,Australia",-37.8263313,145.1278595,POINT (145.1278595 -37.8263313),Box Hill High School,1
Box Hill,14 Parkside Av,3,h,1755000.0,24/06/2017,3128,Eastern Metropolitan,4605,10.9,Whitehorse City Council,"14 Parkside Av,Box Hill,3128,Victoria,Australia",-37.828403200000004,145.11865769999997,POINT (145.1186577 -37.8284032),Box Hill High School,1
Surrey Hills,52 Park Rd,5,h,2000000.0,24/06/2017,3127,Southern Metropolitan,5457,10.2,Boroondara City Council,"52 Park Rd,Surrey Hills,3127,Victoria,Australia",-37.837446,145.1111651,POINT (145.1111651 -37.837446),Box Hill High School,1
Blackburn,11 Rosalind Cr,5,h,1238781.0,24/09/2016,3130,Eastern Metropolitan,5713,13.4,Whitehorse City Council,"11 Rosalind Cr,Blackburn,3130,Victoria,Australia",-37.8286738,145.15928080000003,POINT (145.1592808 -37.8286738),Box Hill High School,1
Blackburn,17 Dewrang Cr,3,h,1301000.0,25/02/2017,3130,Eastern Metropolitan,5713,13.4,Whitehorse City Council,"17 Dewrang Cr,Blackburn,3130,Victoria,Australia",-37.8178473,145.1415199,POINT (145.1415199 -37.8178473),Box Hill High School,1
Box Hill,14 Collins St,4,h,1670000.0,25/02/2017,3128,Eastern Metropolitan,4605,10.9,Whitehorse City Council,"14 Collins St,Box Hill,3128,Victoria,Australia",-37.827397999999995,145.12523159999998,POINT (145.1252316 -37.827398),Box Hill High School,1
Box Hill,14 Standard Av,4,h,1750000.0,25/02/2017,3128,Eastern Metropolitan,4605,10.9,Whitehorse City Council,"14 Standard Av,Box Hill,3128,Victoria,Australia",-37.8243273,145.1150276,POINT (145.1150276 -37.8243273),Box Hill High School,1
Surrey Hills,14 Park Rd,3,h,1135000.0,25/02/2017,3127,Southern Metropolitan,5457,10.2,Boroondara City Council,"14 Park Rd,Surrey Hills,3127,Victoria,Australia",-37.837446,145.1111651,POINT (145.1111651 -37.837446),Box Hill High School,1
Blackburn,7 Arna St,6,h,1845000.0,25/08/2018,3130,Eastern Metropolitan,5713,13.4,Whitehorse City Council,"7 Arna St,Blackburn,3130,Victoria,Australia",-37.829173,145.1503622,POINT (145.1503622 -37.829173),Box Hill High School,1
Blackburn,24 Rosalind Cr,3,h,930000.0,25/08/2018,3130,Eastern Metropolitan,5713,13.4,Whitehorse City Council,"24 Rosalind Cr,Blackburn,3130,Victoria,Australia",-37.8286738,145.15928080000003,POINT (145.1592808 -37.8286738),Box Hill High School,1
Blackburn,31A Sheehans Rd,3,t,1180000.0,25/11/2017,3130,Eastern Metropolitan,5713,13.4,Whitehorse City Council,"31A Sheehans Rd,Blackburn,3130,Victoria,Australia",-37.8285025,145.1445031,POINT (145.1445031 -37.8285025),Box Hill High School,1
Box Hill,32 Court St,3,h,1700600.0,25/11/2017,3128,Eastern Metropolitan,4605,10.9,Whitehorse City Council,"32 Court St,Box Hill,3128,Victoria,Australia",-37.8182611,145.12642480000002,POINT (145.1264248 -37.8182611),Box Hill High School,1
Box Hill,23 Merton St,3,h,1285000.0,25/11/2017,3128,Eastern Metropolitan,4605,10.9,Whitehorse City Council,"23 Merton St,Box Hill,3128,Victoria,Australia",-37.8251584,145.1253704,POINT (145.1253704 -37.8251584),Box Hill High School,1
Blackburn,2/5 Dewrang Cr,2,u,942000.0,26/05/2018,3130,Eastern Metropolitan,5713,13.4,Whitehorse City Council,"2/5 Dewrang Cr,Blackburn,3130,Victoria,Australia",-37.8178473,145.1415199,POINT (145.1415199 -37.8178473),Box Hill High School,1
Blackburn,22 Malabar Rd,3,h,1321000.0,26/05/2018,3130,Eastern Metropolitan,5713,13.4,Whitehorse City Council,"22 Malabar Rd,Blackburn,3130,Victoria,Australia",-37.818769399999994,145.1404556,POINT (145.1404556 -37.81876939999999),Box Hill High School,1
Box Hill,302/33 Harrow St,2,u,420000.0,26/05/2018,3128,Eastern Metropolitan,4605,10.9,Whitehorse City Council,"302/33 Harrow St,Box Hill,3128,Victoria,Australia",-37.82156629999999,145.1253645,POINT (145.1253645 -37.82156629999999),Box Hill High School,1
Box Hill,39 Thames St,3,h,1500000.0,26/05/2018,3128,Eastern Metropolitan,4605,10.9,Whitehorse City Council,"39 Thames St,Box Hill,3128,Victoria,Australia",-37.8144852,145.1313851,POINT (145.1313851 -37.8144852),Box Hill High School,1
Blackburn,2/65 Canterbury Rd,4,t,910000.0,26/07/2016,3130,Eastern Metropolitan,5713,13.4,Whitehorse City Council,"2/65 Canterbury Rd,Blackburn,3130,Victoria,Australia",-37.8320213,145.1499747,POINT (145.1499747 -37.8320213),Box Hill High School,1
Blackburn,6/28 Main St,2,u,670000.0,26/07/2016,3130,Eastern Metropolitan,5713,13.4,Whitehorse City Council,"6/28 Main St,Blackburn,3130,Victoria,Australia",-37.8267177,145.1491477,POINT (145.1491477 -37.8267177),Box Hill High School,1
Box Hill,1/10 Kangerong Rd,2,u,737000.0,26/07/2016,3128,Eastern Metropolitan,4605,10.9,Whitehorse City Council,"1/10 Kangerong Rd,Box Hill,3128,Victoria,Australia",-37.8183096,145.12742680000002,POINT (145.1274268 -37.8183096),Box Hill High School,1
Blackburn,3/29 Baldwin Rd,2,u,630100.0,26/08/2017,3130,Eastern Metropolitan,5713,13.4,Whitehorse City Council,"3/29 Baldwin Rd,Blackburn,3130,Victoria,Australia",-37.83122120000001,145.14629130000003,POINT (145.1462913 -37.83122120000001),Box Hill High School,1
Blackburn South,20 Wreford Rd,3,h,1152000.0,26/08/2017,3130,Eastern Metropolitan,4387,13.4,Whitehorse City Council,"20 Wreford Rd,Blackburn South,3130,Victoria,Australia",-37.83155120000001,145.14545769999998,POINT (145.1454577 -37.83155120000001),Box Hill High School,1
Box Hill,13 Cunningham St,5,h,1900000.0,26/08/2017,3128,Eastern Metropolitan,4605,10.9,Whitehorse City Council,"13 Cunningham St,Box Hill,3128,Victoria,Australia",-37.827278899999996,145.13006969999998,POINT (145.1300697 -37.8272789),Box Hill High School,1
Box Hill,6A Kintore Cr,4,h,1325000.0,26/08/2017,3128,Eastern Metropolitan,4605,10.9,Whitehorse City Council,"6A Kintore Cr,Box Hill,3128,Victoria,Australia",-37.8206657,145.11665159999998,POINT (145.1166516 -37.8206657),Box Hill High School,1
Surrey Hills,3 Oak St,4,h,3100000.0,26/08/2017,3127,Southern Metropolitan,5457,10.2,Boroondara City Council,"3 Oak St,Surrey Hills,3127,Victoria,Australia",-37.833063700000004,145.1098475,POINT (145.1098475 -37.8330637),Box Hill High School,1
Blackburn,5/4 Downing St,3,u,860000.0,27/11/2016,3130,Eastern Metropolitan,5713,13.4,Whitehorse City Council,"5/4 Downing St,Blackburn,3130,Victoria,Australia",-37.8186455,145.14569269999998,POINT (145.1456927 -37.8186455),Box Hill High School,1
Blackburn,1 Kalka St,3,h,1470000.0,27/11/2016,3130,Eastern Metropolitan,5713,13.4,Whitehorse City Council,"1 Kalka St,Blackburn,3130,Victoria,Australia",-37.83011870000001,145.15032630000002,POINT (145.1503263 -37.83011870000001),Box Hill High School,1
Box Hill,15 Simpsons Rd,4,h,1125000.0,27/11/2016,3128,Eastern Metropolitan,4605,10.9,Whitehorse City Council,"15 Simpsons Rd,Box Hill,3128,Victoria,Australia",-37.8153869,145.1342788,POINT (145.1342788 -37.8153869),Box Hill High School,1
Mont Albert,3 Blenheim Av,4,h,2025000.0,27/11/2016,3127,Eastern Metropolitan,2079,10.2,Boroondara City Council,"3 Blenheim Av,Mont Albert,3127,Victoria,Australia",-37.8240216,145.11307030000003,POINT (145.1130703 -37.8240216),Box Hill High School,1
Blackburn,3/28 Main St,2,u,635000.0,28/04/2018,3130,Eastern Metropolitan,5713,13.4,Whitehorse City Council,"3/28 Main St,Blackburn,3130,Victoria,Australia",-37.8267177,145.1491477,POINT (145.1491477 -37.8267177),Box Hill High School,1
Blackburn,316 Middleborough Rd,5,h,1335000.0,28/04/2018,3130,Eastern Metropolitan,5713,13.4,Whitehorse City Council,"316 Middleborough Rd,Blackburn,3130,Victoria,Australia",-37.8303512,145.1363523,POINT (145.1363523 -37.8303512),Box Hill High School,1
Blackburn,47 Salisbury Av,2,h,1060000.0,28/04/2018,3130,Eastern Metropolitan,5713,13.4,Whitehorse City Council,"47 Salisbury Av,Blackburn,3130,Victoria,Australia",-37.822709700000004,145.1405991,POINT (145.1405991 -37.8227097),Box Hill High School,1
Blackburn South,2/6 Maxwell Ct,3,h,1336000.0,28/04/2018,3130,Eastern Metropolitan,4387,13.4,Whitehorse City Council,"2/6 Maxwell Ct,Blackburn South,3130,Victoria,Australia",-37.8331911,145.1451929,POINT (145.1451929 -37.8331911),Box Hill High School,1
Box Hill,947 Canterbury Rd,3,h,1032000.0,28/04/2018,3128,Eastern Metropolitan,4605,10.9,Whitehorse City Council,"947 Canterbury Rd,Box Hill,3128,Victoria,Australia",-37.830260100000004,145.1352901,POINT (145.1352901 -37.8302601),Box Hill High School,1
Box Hill,3/27 Oxford St,3,t,945000.0,28/04/2018,3128,Eastern Metropolitan,4605,10.9,Whitehorse City Council,"3/27 Oxford St,Box Hill,3128,Victoria,Australia",-37.8215957,145.1191885,POINT (145.1191885 -37.8215957),Box Hill High School,1
Box Hill,3/6 Simpsons Rd,2,u,600000.0,28/04/2018,3128,Eastern Metropolitan,4605,10.9,Whitehorse City Council,"3/6 Simpsons Rd,Box Hill,3128,Victoria,Australia",-37.8153869,145.1342788,POINT (145.1342788 -37.8153869),Box Hill High School,1
Blackburn South,10 Agnew St,3,h,1050000.0,28/05/2016,3130,Eastern Metropolitan,4387,13.4,Whitehorse City Council,"10 Agnew St,Blackburn South,3130,Victoria,Australia",-37.831878499999995,145.136148,POINT (145.136148 -37.83187849999999),Box Hill High School,1
Blackburn South,1 Bright Pl,3,t,700000.0,28/05/2016,3130,Eastern Metropolitan,4387,13.4,Whitehorse City Council,"1 Bright Pl,Blackburn South,3130,Victoria,Australia",-37.8321375,145.1416822,POINT (145.1416822 -37.8321375),Box Hill High School,1
Box Hill,837 Canterbury Rd,3,h,857000.0,28/05/2016,3128,Eastern Metropolitan,4605,10.9,Whitehorse City Council,"837 Canterbury Rd,Box Hill,3128,Victoria,Australia",-37.830260100000004,145.1352901,POINT (145.1352901 -37.8302601),Box Hill High School,1
Box Hill,2/38 Margaret St,3,t,822500.0,28/05/2016,3128,Eastern Metropolitan,4605,10.9,Whitehorse City Council,"2/38 Margaret St,Box Hill,3128,Victoria,Australia",-37.81454960000001,145.131838,POINT (145.131838 -37.81454960000001),Box Hill High School,1
Blackburn South,150 Middleborough Rd,3,h,803500.0,28/07/2018,3130,Eastern Metropolitan,4387,13.4,Whitehorse City Council,"150 Middleborough Rd,Blackburn South,3130,Victoria,Australia",-37.83072670000001,145.1362805,POINT (145.1362805 -37.83072670000001),Box Hill High School,1
Box Hill,2/30 Barkly St,2,u,560000.0,28/08/2016,3128,Eastern Metropolitan,4605,10.9,Whitehorse City Council,"2/30 Barkly St,Box Hill,3128,Victoria,Australia",-37.8275158,145.1300238,POINT (145.1300238 -37.8275158),Box Hill High School,1
Blackburn,2/10 Frankcom St,2,t,680000.0,28/10/2017,3130,Eastern Metropolitan,5713,13.4,Whitehorse City Council,"2/10 Frankcom St,Blackburn,3130,Victoria,Australia",-37.818729100000006,145.14418799999999,POINT (145.144188 -37.81872910000001),Box Hill High School,1
Blackburn,9 Naughton Gr,4,h,1940000.0,28/10/2017,3130,Eastern Metropolitan,5713,13.4,Whitehorse City Council,"9 Naughton Gr,Blackburn,3130,Victoria,Australia",-37.8289219,145.1568491,POINT (145.1568491 -37.8289219),Box Hill High School,1
Blackburn South,12/5 Travellyn Ct,2,u,615000.0,29/07/2017,3130,Eastern Metropolitan,4387,13.4,Whitehorse City Council,"12/5 Travellyn Ct,Blackburn South,3130,Victoria,Australia",-37.8322948,145.14465819999998,POINT (145.1446582 -37.8322948),Box Hill High School,1
Box Hill,9 Bishop St,4,h,1831000.0,29/07/2017,3128,Eastern Metropolitan,4605,10.9,Whitehorse City Council,"9 Bishop St,Box Hill,3128,Victoria,Australia",-37.82035379999999,145.13287169999998,POINT (145.1328717 -37.82035379999999),Box Hill High School,1
Blackburn,199 Canterbury Rd,4,h,2850000.0,30/06/2018,3130,Eastern Metropolitan,5713,13.4,Whitehorse City Council,"199 Canterbury Rd,Blackburn,3130,Victoria,Australia",-37.8320213,145.1499747,POINT (145.1499747 -37.8320213),Box Hill High School,1
Blackburn South,1A Barrina St,3,h,950000.0,30/06/2018,3130,Eastern Metropolitan,4387,13.4,Whitehorse City Council,"1A Barrina St,Blackburn South,3130,Victoria,Australia",-37.835542700000005,145.1408658,POINT (145.1408658 -37.8355427),Box Hill High School,1
Box Hill,4/68 Dorking Rd,2,u,635000.0,30/06/2018,3128,Eastern Metropolitan,4605,10.9,Whitehorse City Council,"4/68 Dorking Rd,Box Hill,3128,Victoria,Australia",-37.816224299999995,145.13115630000001,POINT (145.1311563 -37.81622429999999),Box Hill High School,1
Surrey Hills,2/63 Park Rd,3,u,1150000.0,30/06/2018,3127,Southern Metropolitan,5457,10.2,Boroondara City Council,"2/63 Park Rd,Surrey Hills,3127,Victoria,Australia",-37.837446,145.1111651,POINT (145.1111651 -37.837446),Box Hill High School,1
Blackburn,48 Alandale Rd,4,h,1150000.0,30/07/2016,3130,Eastern Metropolitan,5713,13.4,Whitehorse City Council,"48 Alandale Rd,Blackburn,3130,Victoria,Australia",-37.827242600000005,145.1528392,POINT (145.1528392 -37.82724260000001),Box Hill High School,1
Blackburn South,1/21 Branksome Gr,2,u,685000.0,30/07/2016,3130,Eastern Metropolitan,4387,13.4,Whitehorse City Council,"1/21 Branksome Gr,Blackburn South,3130,Victoria,Australia",-37.8311786,145.1423801,POINT (145.1423801 -37.8311786),Box Hill High School,1
Box Hill,1/14 Alexander St,2,u,420000.0,30/07/2016,3128,Eastern Metropolitan,4605,10.9,Whitehorse City Council,"1/14 Alexander St,Box Hill,3128,Victoria,Australia",-37.8254451,145.1202997,POINT (145.1202997 -37.8254451),Box Hill High School,1
Blackburn,36A Sheehans Rd,5,h,2250000.0,30/12/2017,3130,Eastern Metropolitan,5713,13.4,Whitehorse City Council,"36A Sheehans Rd,Blackburn,3130,Victoria,Australia",-37.8285025,145.1445031,POINT (145.1445031 -37.8285025),Box Hill High School,1
Blackburn South,180 Canterbury Rd,3,h,950000.0,30/12/2017,3130,Eastern Metropolitan,4387,13.4,Whitehorse City Council,"180 Canterbury Rd,Blackburn South,3130,Victoria,Australia",-37.8310071,145.14096990000002,POINT (145.1409699 -37.8310071),Box Hill High School,1
Blackburn South,38 Lawrence St,3,h,950000.0,30/12/2017,3130,Eastern Metropolitan,4387,13.4,Whitehorse City Council,"38 Lawrence St,Blackburn South,3130,Victoria,Australia",-37.8337997,145.14854069999998,POINT (145.1485407 -37.8337997),Box Hill High School,1
Balwyn,104/29 Belgrove Av,2,u,660800.0,1/04/2017,3103,Southern Metropolitan,5682,7.9,Boroondara City Council,"104/29 Belgrove Av,Balwyn,3103,Victoria,Australia",-37.8055816,145.0840168,POINT (145.0840168 -37.8055816),Balwyn High School,2
Balwyn,2/362 Belmore Rd,2,t,700000.0,1/04/2017,3103,Southern Metropolitan,5682,7.9,Boroondara City Council,"2/362 Belmore Rd,Balwyn,3103,Victoria,Australia",-37.8044954,145.09072700000002,POINT (145.090727 -37.8044954),Balwyn High School,2
Balwyn,4 Lynch Ct,3,h,2035000.0,1/04/2017,3103,Southern Metropolitan,5682,7.9,Boroondara City Council,"4 Lynch Ct,Balwyn,3103,Victoria,Australia",-37.8038386,145.0734468,POINT (145.0734468 -37.8038386),Balwyn High School,2
Deepdene,19 Terry St,2,h,1610000.0,1/04/2017,3103,Southern Metropolitan,892,7.9,Boroondara City Council,"19 Terry St,Deepdene,3103,Victoria,Australia",-37.8108968,145.0692289,POINT (145.0692289 -37.8108968),Balwyn High School,2
Balwyn,38 Belmore Rd,4,h,1475000.0,1/07/2017,3103,Southern Metropolitan,5682,7.9,Boroondara City Council,"38 Belmore Rd,Balwyn,3103,Victoria,Australia",-37.8044954,145.09072700000002,POINT (145.090727 -37.8044954),Balwyn High School,2
Balwyn North,2/43 Sutton St,3,h,1275000.0,1/07/2017,3104,Southern Metropolitan,7809,9.7,Boroondara City Council,"2/43 Sutton St,Balwyn North,3104,Victoria,Australia",-37.7953245,145.08063159999998,POINT (145.0806316 -37.7953245),Balwyn High School,2
Balwyn,1/2 Aif St,3,t,1410000.0,1/09/2018,3103,Southern Metropolitan,5682,7.9,Boroondara City Council,"1/2 Aif St,Balwyn,3103,Victoria,Australia",-37.8088439,145.0778556,POINT (145.0778556 -37.8088439),Balwyn High School,2
Balwyn,31 Austin St,3,t,1500000.0,1/09/2018,3103,Southern Metropolitan,5682,7.9,Boroondara City Council,"31 Austin St,Balwyn,3103,Victoria,Australia",-37.8104265,145.0755968,POINT (145.0755968 -37.8104265),Balwyn High School,2
Balwyn,40A Power St,3,t,1460000.0,2/06/2018,3103,Southern Metropolitan,5682,7.9,Boroondara City Council,"40A Power St,Balwyn,3103,Victoria,Australia",-37.8115245,145.0791055,POINT (145.0791055 -37.8115245),Balwyn High School,2
Balwyn,2/32 Yerrin St,3,h,1415000.0,2/06/2018,3103,Southern Metropolitan,5682,7.9,Boroondara City Council,"2/32 Yerrin St,Balwyn,3103,Victoria,Australia",-37.8108766,145.0845131,POINT (145.0845131 -37.8108766),Balwyn High School,2
Balwyn,20 Nungerner St,5,h,2360000.0,3/03/2018,3103,Southern Metropolitan,5682,7.9,Boroondara City Council,"20 Nungerner St,Balwyn,3103,Victoria,Australia",-37.8044228,145.0699024,POINT (145.0699024 -37.8044228),Balwyn High School,2
Balwyn North,7 Helston St,4,h,2255000.0,3/03/2018,3104,Southern Metropolitan,7809,9.7,Boroondara City Council,"7 Helston St,Balwyn North,3104,Victoria,Australia",-37.7850823,145.0943493,POINT (145.0943493 -37.7850823),Balwyn High School,2
Balwyn,5 Collins Ct,3,t,1810000.0,3/06/2017,3103,Southern Metropolitan,5682,7.9,Boroondara City Council,"5 Collins Ct,Balwyn,3103,Victoria,Australia",-37.8052309,145.08944430000003,POINT (145.0894443 -37.8052309),Balwyn High School,2
Balwyn North,28 Carron St,4,h,1593000.0,3/06/2017,3104,Southern Metropolitan,7809,9.7,Boroondara City Council,"28 Carron St,Balwyn North,3104,Victoria,Australia",-37.781341999999995,145.0916803,POINT (145.0916803 -37.781342),Balwyn High School,2
Balwyn North,20 Trentwood Av,3,h,1310000.0,3/06/2017,3104,Southern Metropolitan,7809,9.7,Boroondara City Council,"20 Trentwood Av,Balwyn North,3104,Victoria,Australia",-37.7868389,145.0972868,POINT (145.0972868 -37.7868389),Balwyn High School,2
Balwyn,36 Narrak Rd,4,h,1800000.0,3/09/2016,3103,Southern Metropolitan,5682,7.9,Boroondara City Council,"36 Narrak Rd,Balwyn,3103,Victoria,Australia",-37.8072778,145.096342,POINT (145.096342 -37.8072778),Balwyn High School,2
Balwyn North,19 Jacka St,4,h,3230000.0,3/09/2016,3104,Southern Metropolitan,7809,9.7,Boroondara City Council,"19 Jacka St,Balwyn North,3104,Victoria,Australia",-37.801539899999995,145.0889911,POINT (145.0889911 -37.80153989999999),Balwyn High School,2
Balwyn North,32 Jaserfold St,2,h,1080000.0,3/09/2016,3104,Southern Metropolitan,7809,9.7,Boroondara City Council,"32 Jaserfold St,Balwyn North,3104,Victoria,Australia",-37.790864,145.08326619999997,POINT (145.0832662 -37.790864),Balwyn High School,2
Balwyn North,2/5 Marwal Av,4,u,1450000.0,3/09/2016,3104,Southern Metropolitan,7809,9.7,Boroondara City Council,"2/5 Marwal Av,Balwyn North,3104,Victoria,Australia",-37.7934385,145.07160290000002,POINT (145.0716029 -37.7934385),Balwyn High School,2
Balwyn North,2 Carrington St,3,h,1785000.0,3/09/2017,3104,Southern Metropolitan,7809,9.7,Boroondara City Council,"2 Carrington St,Balwyn North,3104,Victoria,Australia",-37.8028367,145.0856955,POINT (145.0856955 -37.8028367),Balwyn High School,2
Balwyn North,1/5 Dumblane St,3,t,1485000.0,3/09/2017,3104,Southern Metropolitan,7809,9.7,Boroondara City Council,"1/5 Dumblane St,Balwyn North,3104,Victoria,Australia",-37.7909765,145.0902543,POINT (145.0902543 -37.7909765),Balwyn High School,2
Balwyn North,65 Longview Rd,4,h,2650000.0,3/09/2017,3104,Southern Metropolitan,7809,9.7,Boroondara City Council,"65 Longview Rd,Balwyn North,3104,Victoria,Australia",-37.7866449,145.07826640000002,POINT (145.0782664 -37.7866449),Balwyn High School,2
Balwyn North,17 Vicars St,5,h,1951000.0,3/09/2017,3104,Southern Metropolitan,7809,9.7,Boroondara City Council,"17 Vicars St,Balwyn North,3104,Victoria,Australia",-37.7905467,145.0879874,POINT (145.0879874 -37.7905467),Balwyn High School,2
Balwyn North,14 Wanbrow Av,5,h,1950000.0,3/09/2017,3104,Southern Metropolitan,7809,9.7,Boroondara City Council,"14 Wanbrow Av,Balwyn North,3104,Victoria,Australia",-37.8032164,145.0924159,POINT (145.0924159 -37.8032164),Balwyn High School,2
Balwyn,2/74 Balwyn Rd,3,u,1070000.0,3/12/2016,3103,Southern Metropolitan,5682,7.9,Boroondara City Council,"2/74 Balwyn Rd,Balwyn,3103,Victoria,Australia",-37.8078898,145.0822993,POINT (145.0822993 -37.8078898),Balwyn High School,2
Balwyn,19 Belgrove Av,4,h,2200000.0,3/12/2016,3103,Southern Metropolitan,5682,7.9,Boroondara City Council,"19 Belgrove Av,Balwyn,3103,Victoria,Australia",-37.8055816,145.0840168,POINT (145.0840168 -37.8055816),Balwyn High School,2
Balwyn,26 Belgrove Av,4,h,2290000.0,3/12/2016,3103,Southern Metropolitan,5682,7.9,Boroondara City Council,"26 Belgrove Av,Balwyn,3103,Victoria,Australia",-37.8055816,145.0840168,POINT (145.0840168 -37.8055816),Balwyn High School,2
Balwyn,112 Belmore Rd,5,h,2570000.0,3/12/2016,3103,Southern Metropolitan,5682,7.9,Boroondara City Council,"112 Belmore Rd,Balwyn,3103,Victoria,Australia",-37.8044954,145.09072700000002,POINT (145.090727 -37.8044954),Balwyn High School,2
Balwyn,4 Melba Ct,5,h,3250000.0,3/12/2016,3103,Southern Metropolitan,5682,7.9,Boroondara City Council,"4 Melba Ct,Balwyn,3103,Victoria,Australia",-37.8070916,145.0906202,POINT (145.0906202 -37.8070916),Balwyn High School,2
Balwyn,22 Yongala St,5,h,2250000.0,3/12/2016,3103,Southern Metropolitan,5682,7.9,Boroondara City Council,"22 Yongala St,Balwyn,3103,Victoria,Australia",-37.8055591,145.0772501,POINT (145.0772501 -37.8055591),Balwyn High School,2
Balwyn North,25 Bolinda Rd,4,h,1905000.0,3/12/2016,3104,Southern Metropolitan,7809,9.7,Boroondara City Council,"25 Bolinda Rd,Balwyn North,3104,Victoria,Australia",-37.790405299999996,145.0868362,POINT (145.0868362 -37.7904053),Balwyn High School,2
Balwyn North,3 Dumblane St,5,h,3300000.0,3/12/2016,3104,Southern Metropolitan,7809,9.7,Boroondara City Council,"3 Dumblane St,Balwyn North,3104,Victoria,Australia",-37.7909765,145.0902543,POINT (145.0902543 -37.7909765),Balwyn High School,2
Balwyn North,30 Hood St,4,h,1900000.0,3/12/2016,3104,Southern Metropolitan,7809,9.7,Boroondara City Council,"30 Hood St,Balwyn North,3104,Victoria,Australia",-37.7987294,145.0736427,POINT (145.0736427 -37.7987294),Balwyn High School,2
Balwyn North,36 Kenny St,3,h,2251000.0,3/12/2016,3104,Southern Metropolitan,7809,9.7,Boroondara City Council,"36 Kenny St,Balwyn North,3104,Victoria,Australia",-37.799895,145.0931208,POINT (145.0931208 -37.799895),Balwyn High School,2
Balwyn North,13 Riverview Rd,4,h,2205000.0,3/12/2016,3104,Southern Metropolitan,7809,9.7,Boroondara City Council,"13 Riverview Rd,Balwyn North,3104,Victoria,Australia",-37.7904037,145.07621609999998,POINT (145.0762161 -37.7904037),Balwyn High School,2
Deepdene,4 Haig St,3,h,2302000.0,3/12/2016,3103,Southern Metropolitan,892,7.9,Boroondara City Council,"4 Haig St,Deepdene,3103,Victoria,Australia",-37.808654,145.0683757,POINT (145.0683757 -37.808654),Balwyn High School,2
Balwyn,13 Naroo St,4,h,1800000.0,8/10/2016,3103,Southern Metropolitan,5682,7.9,Boroondara City Council,"13 Naroo St,Balwyn,3103,Victoria,Australia",-37.8041119,145.068976,POINT (145.068976 -37.8041119),Balwyn High School,2
Balwyn North,3 Clive Ct,4,h,2130000.0,8/10/2016,3104,Southern Metropolitan,7809,9.7,Boroondara City Council,"3 Clive Ct,Balwyn North,3104,Victoria,Australia",-37.7824089,145.0908921,POINT (145.0908921 -37.7824089),Balwyn High School,2
Balwyn North,7 Page St,5,h,3690000.0,8/10/2016,3104,Southern Metropolitan,7809,9.7,Boroondara City Council,"7 Page St,Balwyn North,3104,Victoria,Australia",-37.80300020000001,145.0793512,POINT (145.0793512 -37.80300020000001),Balwyn High School,2
Balwyn North,1/39 Trentwood Av,2,u,709000.0,8/10/2016,3104,Southern Metropolitan,7809,9.7,Boroondara City Council,"1/39 Trentwood Av,Balwyn North,3104,Victoria,Australia",-37.7868389,145.0972868,POINT (145.0972868 -37.7868389),Balwyn High School,2
Balwyn,4/95 Balwyn Rd,2,u,1005000.0,9/09/2017,3103,Southern Metropolitan,5682,7.9,Boroondara City Council,"4/95 Balwyn Rd,Balwyn,3103,Victoria,Australia",-37.8078898,145.0822993,POINT (145.0822993 -37.8078898),Balwyn High School,2
Balwyn,2/2 Percy St,3,u,1455000.0,9/09/2017,3103,Southern Metropolitan,5682,7.9,Boroondara City Council,"2/2 Percy St,Balwyn,3103,Victoria,Australia",-37.8118065,145.07289519999998,POINT (145.0728952 -37.8118065),Balwyn High School,2
Balwyn North,286 Balwyn Rd,4,h,1950000.0,9/09/2017,3104,Southern Metropolitan,7809,9.7,Boroondara City Council,"286 Balwyn Rd,Balwyn North,3104,Victoria,Australia",-37.794724,145.0848523,POINT (145.0848523 -37.794724),Balwyn High School,2
Balwyn North,2 Lynne Ct,4,h,2000000.0,9/09/2017,3104,Southern Metropolitan,7809,9.7,Boroondara City Council,"2 Lynne Ct,Balwyn North,3104,Victoria,Australia",-37.7898229,145.09601569999998,POINT (145.0960157 -37.7898229),Balwyn High School,2
Balwyn,8 Monash Av,4,h,2650000.0,9/12/2017,3103,Southern Metropolitan,5682,7.9,Boroondara City Council,"8 Monash Av,Balwyn,3103,Victoria,Australia",-37.808041100000004,145.07156319999999,POINT (145.0715632 -37.8080411),Balwyn High School,2
Balwyn,31 Winmalee Rd,4,h,2200000.0,9/12/2017,3103,Southern Metropolitan,5682,7.9,Boroondara City Council,"31 Winmalee Rd,Balwyn,3103,Victoria,Australia",-37.8069099,145.08497549999998,POINT (145.0849755 -37.8069099),Balwyn High School,2
Balwyn North,17 Helston St,4,h,1600000.0,9/12/2017,3104,Southern Metropolitan,7809,9.7,Boroondara City Council,"17 Helston St,Balwyn North,3104,Victoria,Australia",-37.7850823,145.0943493,POINT (145.0943493 -37.7850823),Balwyn High School,2
Balwyn North,4 Penn St,3,h,2100000.0,9/12/2017,3104,Southern Metropolitan,7809,9.7,Boroondara City Council,"4 Penn St,Balwyn North,3104,Victoria,Australia",-37.790814399999995,145.083274,POINT (145.083274 -37.7908144),Balwyn High School,2
Balwyn,68 Elliott Av,5,h,2350000.0,10/09/2016,3103,Southern Metropolitan,5682,7.9,Boroondara City Council,"68 Elliott Av,Balwyn,3103,Victoria,Australia",-37.8030419,145.0736011,POINT (145.0736011 -37.8030419),Balwyn High School,2
Balwyn,6 Tonkin Av,2,h,1900000.0,10/09/2016,3103,Southern Metropolitan,5682,7.9,Boroondara City Council,"6 Tonkin Av,Balwyn,3103,Victoria,Australia",-37.80561229999999,145.0858045,POINT (145.0858045 -37.80561229999999),Balwyn High School,2
Balwyn North,8 Cash St,4,h,1740000.0,10/09/2016,3104,Southern Metropolitan,7809,9.7,Boroondara City Council,"8 Cash St,Balwyn North,3104,Victoria,Australia",-37.7839972,145.0880077,POINT (145.0880077 -37.7839972),Balwyn High School,2
Balwyn North,7 Grieve St,4,h,2575000.0,10/09/2016,3104,Southern Metropolitan,7809,9.7,Boroondara City Council,"7 Grieve St,Balwyn North,3104,Victoria,Australia",-37.798036100000004,145.0910638,POINT (145.0910638 -37.7980361),Balwyn High School,2
Balwyn North,39 Kawarren St,4,h,1388800.0,10/09/2016,3104,Southern Metropolitan,7809,9.7,Boroondara City Council,"39 Kawarren St,Balwyn North,3104,Victoria,Australia",-37.784034399999996,145.0922361,POINT (145.0922361 -37.7840344),Balwyn High School,2
Balwyn,11 Belgrove Av,5,h,2950000.0,10/12/2016,3103,Southern Metropolitan,5682,7.9,Boroondara City Council,"11 Belgrove Av,Balwyn,3103,Victoria,Australia",-37.8055816,145.0840168,POINT (145.0840168 -37.8055816),Balwyn High School,2
Balwyn,1/18 Belmore Rd,3,h,905000.0,10/12/2016,3103,Southern Metropolitan,5682,7.9,Boroondara City Council,"1/18 Belmore Rd,Balwyn,3103,Victoria,Australia",-37.8044954,145.09072700000002,POINT (145.090727 -37.8044954),Balwyn High School,2
Balwyn,11/22 Brenbeal St,2,t,760000.0,10/12/2016,3103,Southern Metropolitan,5682,7.9,Boroondara City Council,"11/22 Brenbeal St,Balwyn,3103,Victoria,Australia",-37.8112846,145.087244,POINT (145.087244 -37.8112846),Balwyn High School,2
Balwyn,3/3 Iramoo St,3,t,1367000.0,10/12/2016,3103,Southern Metropolitan,5682,7.9,Boroondara City Council,"3/3 Iramoo St,Balwyn,3103,Victoria,Australia",-37.8127086,145.0855346,POINT (145.0855346 -37.8127086),Balwyn High School,2
Balwyn,9/7 Kireep Rd,3,t,788000.0,10/12/2016,3103,Southern Metropolitan,5682,7.9,Boroondara City Council,"9/7 Kireep Rd,Balwyn,3103,Victoria,Australia",-37.8105799,145.0893718,POINT (145.0893718 -37.8105799),Balwyn High School,2
Balwyn,18 Metung St,5,h,3600000.0,10/12/2016,3103,Southern Metropolitan,5682,7.9,Boroondara City Council,"18 Metung St,Balwyn,3103,Victoria,Australia",-37.804641600000004,145.0710626,POINT (145.0710626 -37.8046416),Balwyn High School,2
Balwyn,25 Percy St,5,h,2550000.0,10/12/2016,3103,Southern Metropolitan,5682,7.9,Boroondara City Council,"25 Percy St,Balwyn,3103,Victoria,Australia",-37.8118065,145.07289519999998,POINT (145.0728952 -37.8118065),Balwyn High School,2
Balwyn North,41 Helston St,4,h,1800000.0,10/12/2016,3104,Southern Metropolitan,7809,9.7,Boroondara City Council,"41 Helston St,Balwyn North,3104,Victoria,Australia",-37.7850823,145.0943493,POINT (145.0943493 -37.7850823),Balwyn High School,2
Balwyn North,15 Moody St,4,h,2910000.0,10/12/2016,3104,Southern Metropolitan,7809,9.7,Boroondara City Council,"15 Moody St,Balwyn North,3104,Victoria,Australia",-37.79793170000001,145.07384030000003,POINT (145.0738403 -37.79793170000001),Balwyn High School,2
Balwyn North,2/19 Moody St,2,t,1135000.0,15/09/2018,3104,Southern Metropolitan,7809,9.7,Boroondara City Council,"2/19 Moody St,Balwyn North,3104,Victoria,Australia",-37.79793170000001,145.07384030000003,POINT (145.0738403 -37.79793170000001),Balwyn High School,2
Balwyn North,4 Singleton Rd,4,h,1525000.0,15/09/2018,3104,Southern Metropolitan,7809,9.7,Boroondara City Council,"4 Singleton Rd,Balwyn North,3104,Victoria,Australia",-37.7834644,145.0911706,POINT (145.0911706 -37.7834644),Balwyn High School,2
Balwyn,38 Frederick St,4,h,2730000.0,15/10/2016,3103,Southern Metropolitan,5682,7.9,Boroondara City Council,"38 Frederick St,Balwyn,3103,Victoria,Australia",-37.806503,145.077924,POINT (145.077924 -37.806503),Balwyn High School,2
Balwyn,18 Linckens Cr,4,h,2410000.0,15/10/2016,3103,Southern Metropolitan,5682,7.9,Boroondara City Council,"18 Linckens Cr,Balwyn,3103,Victoria,Australia",-37.8087784,145.0870411,POINT (145.0870411 -37.8087784),Balwyn High School,2
Balwyn North,14 Dumblane St,5,h,1750000.0,15/10/2016,3104,Southern Metropolitan,7809,9.7,Boroondara City Council,"14 Dumblane St,Balwyn North,3104,Victoria,Australia",-37.7909765,145.0902543,POINT (145.0902543 -37.7909765),Balwyn High School,2
Balwyn North,13 Glenthorn Av,3,h,1636000.0,15/10/2016,3104,Southern Metropolitan,7809,9.7,Boroondara City Council,"13 Glenthorn Av,Balwyn North,3104,Victoria,Australia",-37.8035591,145.09589240000003,POINT (145.0958924 -37.8035591),Balwyn High School,2
Balwyn North,64 Greythorn Rd,5,h,2000000.0,15/10/2016,3104,Southern Metropolitan,7809,9.7,Boroondara City Council,"64 Greythorn Rd,Balwyn North,3104,Victoria,Australia",-37.7900414,145.0997695,POINT (145.0997695 -37.7900414),Balwyn High School,2
Balwyn North,11 Stephens St,4,h,3000000.0,15/10/2016,3104,Southern Metropolitan,7809,9.7,Boroondara City Council,"11 Stephens St,Balwyn North,3104,Victoria,Australia",-37.796991,145.0858325,POINT (145.0858325 -37.796991),Balwyn High School,2
Balwyn North,54 Sutton St,3,h,1818000.0,15/10/2016,3104,Southern Metropolitan,7809,9.7,Boroondara City Council,"54 Sutton St,Balwyn North,3104,Victoria,Australia",-37.7953245,145.08063159999998,POINT (145.0806316 -37.7953245),Balwyn High School,2
Balwyn,7 Power St,5,h,2020000.0,16/04/2016,3103,Southern Metropolitan,5682,7.9,Boroondara City Council,"7 Power St,Balwyn,3103,Victoria,Australia",-37.8115245,145.0791055,POINT (145.0791055 -37.8115245),Balwyn High School,2
Balwyn North,3 Alpha St,4,h,2170000.0,16/04/2016,3104,Southern Metropolitan,7809,9.7,Boroondara City Council,"3 Alpha St,Balwyn North,3104,Victoria,Australia",-37.7989039,145.0937968,POINT (145.0937968 -37.7989039),Balwyn High School,2
Balwyn North,237a Balwyn Rd,5,h,1310000.0,16/04/2016,3104,Southern Metropolitan,7809,9.7,Boroondara City Council,"237a Balwyn Rd,Balwyn North,3104,Victoria,Australia",-37.794724,145.0848523,POINT (145.0848523 -37.794724),Balwyn High School,2
Balwyn North,48 Hosken St,4,h,2525000.0,16/04/2016,3104,Southern Metropolitan,7809,9.7,Boroondara City Council,"48 Hosken St,Balwyn North,3104,Victoria,Australia",-37.7979438,145.08699219999997,POINT (145.0869922 -37.7979438),Balwyn High School,2
Balwyn North,17 Stephens St,4,h,3360000.0,16/04/2016,3104,Southern Metropolitan,7809,9.7,Boroondara City Council,"17 Stephens St,Balwyn North,3104,Victoria,Australia",-37.796991,145.0858325,POINT (145.0858325 -37.796991),Balwyn High School,2
Balwyn North,7 Sunburst Av,3,h,1845000.0,16/04/2016,3104,Southern Metropolitan,7809,9.7,Boroondara City Council,"7 Sunburst Av,Balwyn North,3104,Victoria,Australia",-37.79062570000001,145.0750874,POINT (145.0750874 -37.79062570000001),Balwyn High School,2
Balwyn,8 Metung St,3,h,2545000.0,16/06/2018,3103,Southern Metropolitan,5682,7.9,Boroondara City Council,"8 Metung St,Balwyn,3103,Victoria,Australia",-37.804641600000004,145.0710626,POINT (145.0710626 -37.8046416),Balwyn High School,2
Deepdene,15 Leonard St,5,h,1920000.0,16/06/2018,3103,Southern Metropolitan,892,7.9,Boroondara City Council,"15 Leonard St,Deepdene,3103,Victoria,Australia",-37.8095528,145.0682075,POINT (145.0682075 -37.8095528),Balwyn High School,2
Balwyn,150 Balwyn Rd,4,h,2250000.0,16/07/2016,3103,Southern Metropolitan,5682,7.9,Boroondara City Council,"150 Balwyn Rd,Balwyn,3103,Victoria,Australia",-37.8078898,145.0822993,POINT (145.0822993 -37.8078898),Balwyn High School,2
Balwyn,3/94 Balwyn Rd,2,u,1053000.0,16/07/2016,3103,Southern Metropolitan,5682,7.9,Boroondara City Council,"3/94 Balwyn Rd,Balwyn,3103,Victoria,Australia",-37.8078898,145.0822993,POINT (145.0822993 -37.8078898),Balwyn High School,2
Balwyn,1/32 Yerrin St,3,t,1472000.0,16/07/2016,3103,Southern Metropolitan,5682,7.9,Boroondara City Council,"1/32 Yerrin St,Balwyn,3103,Victoria,Australia",-37.8108766,145.0845131,POINT (145.0845131 -37.8108766),Balwyn High School,2
Balwyn North,20 Ajax St,4,h,1620000.0,16/07/2016,3104,Southern Metropolitan,7809,9.7,Boroondara City Council,"20 Ajax St,Balwyn North,3104,Victoria,Australia",-37.788365999999996,145.08453889999998,POINT (145.0845389 -37.788366),Balwyn High School,2
Balwyn North,15 Illawarra Rd,3,h,1903000.0,16/07/2016,3104,Southern Metropolitan,7809,9.7,Boroondara City Council,"15 Illawarra Rd,Balwyn North,3104,Victoria,Australia",-37.7981711,145.0800457,POINT (145.0800457 -37.7981711),Balwyn High School,2
Balwyn,1/89 Balwyn Rd,3,t,1325000.0,16/09/2017,3103,Southern Metropolitan,5682,7.9,Boroondara City Council,"1/89 Balwyn Rd,Balwyn,3103,Victoria,Australia",-37.8078898,145.0822993,POINT (145.0822993 -37.8078898),Balwyn High School,2
Balwyn,1 Grosvenor Pde,3,h,1520000.0,16/09/2017,3103,Southern Metropolitan,5682,7.9,Boroondara City Council,"1 Grosvenor Pde,Balwyn,3103,Victoria,Australia",-37.8073642,145.0775644,POINT (145.0775644 -37.8073642),Balwyn High School,2
Balwyn,23 Nungerner St,3,h,2730000.0,16/09/2017,3103,Southern Metropolitan,5682,7.9,Boroondara City Council,"23 Nungerner St,Balwyn,3103,Victoria,Australia",-37.8044228,145.0699024,POINT (145.0699024 -37.8044228),Balwyn High School,2
Balwyn North,1 Page St,3,h,2350000.0,16/09/2017,3104,Southern Metropolitan,7809,9.7,Boroondara City Council,"1 Page St,Balwyn North,3104,Victoria,Australia",-37.80300020000001,145.0793512,POINT (145.0793512 -37.80300020000001),Balwyn High School,2
Balwyn,17 Parkdale Av,4,h,1700000.0,16/12/2017,3103,Southern Metropolitan,5682,7.9,Boroondara City Council,"17 Parkdale Av,Balwyn,3103,Victoria,Australia",-37.8086326,145.09167019999998,POINT (145.0916702 -37.8086326),Balwyn High School,2
Balwyn North,3/2 Heather St,4,h,1420000.0,16/12/2017,3104,Southern Metropolitan,7809,9.7,Boroondara City Council,"3/2 Heather St,Balwyn North,3104,Victoria,Australia",-37.801364299999996,145.08085780000002,POINT (145.0808578 -37.8013643),Balwyn High School,2
Balwyn North,7 Lawson St,4,h,2640000.0,16/12/2017,3104,Southern Metropolitan,7809,9.7,Boroondara City Council,"7 Lawson St,Balwyn North,3104,Victoria,Australia",-37.801555900000004,145.068361,POINT (145.068361 -37.8015559),Balwyn High School,2
Balwyn North,23 Oravel St,5,t,950000.0,16/12/2017,3104,Southern Metropolitan,7809,9.7,Boroondara City Council,"23 Oravel St,Balwyn North,3104,Victoria,Australia",-37.7861782,145.09641159999998,POINT (145.0964116 -37.7861782),Balwyn High School,2
Balwyn North,9 Renown St,4,h,1960000.0,16/12/2017,3104,Southern Metropolitan,7809,9.7,Boroondara City Council,"9 Renown St,Balwyn North,3104,Victoria,Australia",-37.8014338,145.0927267,POINT (145.0927267 -37.8014338),Balwyn High School,2
Balwyn,8 Birdwood St,3,u,1510000.0,17/02/2018,3103,Southern Metropolitan,5682,7.9,Boroondara City Council,"8 Birdwood St,Balwyn,3103,Victoria,Australia",-37.803558200000005,145.0681059,POINT (145.0681059 -37.8035582),Balwyn High School,2
Balwyn,14 Winmalee Rd,3,h,2400000.0,17/02/2018,3103,Southern Metropolitan,5682,7.9,Boroondara City Council,"14 Winmalee Rd,Balwyn,3103,Victoria,Australia",-37.8069099,145.08497549999998,POINT (145.0849755 -37.8069099),Balwyn High School,2
Balwyn North,41 Harrington Av,5,h,2350000.0,17/02/2018,3104,Southern Metropolitan,7809,9.7,Boroondara City Council,"41 Harrington Av,Balwyn North,3104,Victoria,Australia",-37.793818,145.09635459999998,POINT (145.0963546 -37.793818),Balwyn High School,2
Balwyn,28 Burroughs Rd,3,h,1900000.0,17/03/2018,3103,Southern Metropolitan,5682,7.9,Boroondara City Council,"28 Burroughs Rd,Balwyn,3103,Victoria,Australia",-37.806137299999996,145.094748,POINT (145.094748 -37.8061373),Balwyn High School,2
Balwyn,31 Narrak Rd,3,h,1720000.0,17/03/2018,3103,Southern Metropolitan,5682,7.9,Boroondara City Council,"31 Narrak Rd,Balwyn,3103,Victoria,Australia",-37.8072778,145.096342,POINT (145.096342 -37.8072778),Balwyn High School,2
Balwyn North,45 Dight Av,5,h,3200000.0,17/03/2018,3104,Southern Metropolitan,7809,9.7,Boroondara City Council,"45 Dight Av,Balwyn North,3104,Victoria,Australia",-37.7961795,145.0804727,POINT (145.0804727 -37.7961795),Balwyn High School,2
Balwyn North,3 Ellsa St,3,h,2100000.0,17/03/2018,3104,Southern Metropolitan,7809,9.7,Boroondara City Council,"3 Ellsa St,Balwyn North,3104,Victoria,Australia",-37.793818,145.09635459999998,POINT (145.0963546 -37.793818),Balwyn High School,2
Balwyn North,14 Hillview Rd,3,h,2030000.0,17/03/2018,3104,Southern Metropolitan,7809,9.7,Boroondara City Council,"14 Hillview Rd,Balwyn North,3104,Victoria,Australia",-37.78469129999999,145.0808401,POINT (145.0808401 -37.78469129999999),Balwyn High School,2
Balwyn,152 Balwyn Rd,3,h,2380000.0,17/06/2017,3103,Southern Metropolitan,5682,7.9,Boroondara City Council,"152 Balwyn Rd,Balwyn,3103,Victoria,Australia",-37.8078898,145.0822993,POINT (145.0822993 -37.8078898),Balwyn High School,2
Balwyn,17 Birdwood St,1,h,2100000.0,17/06/2017,3103,Southern Metropolitan,5682,7.9,Boroondara City Council,"17 Birdwood St,Balwyn,3103,Victoria,Australia",-37.803558200000005,145.0681059,POINT (145.0681059 -37.8035582),Balwyn High School,2
Balwyn,52 Elliott Av,4,h,3100000.0,17/06/2017,3103,Southern Metropolitan,5682,7.9,Boroondara City Council,"52 Elliott Av,Balwyn,3103,Victoria,Australia",-37.8030419,145.0736011,POINT (145.0736011 -37.8030419),Balwyn High School,2
Balwyn,14 Iramoo St,4,h,3050000.0,17/06/2017,3103,Southern Metropolitan,5682,7.9,Boroondara City Council,"14 Iramoo St,Balwyn,3103,Victoria,Australia",-37.8127086,145.0855346,POINT (145.0855346 -37.8127086),Balwyn High School,2
Balwyn North,3 Chelmsford St,4,h,2444000.0,17/06/2017,3104,Southern Metropolitan,7809,9.7,Boroondara City Council,"3 Chelmsford St,Balwyn North,3104,Victoria,Australia",-37.794772200000004,145.0882346,POINT (145.0882346 -37.7947722),Balwyn High School,2
Balwyn,53 Metung St,3,h,2120000.0,17/09/2016,3103,Southern Metropolitan,5682,7.9,Boroondara City Council,"53 Metung St,Balwyn,3103,Victoria,Australia",-37.804641600000004,145.0710626,POINT (145.0710626 -37.8046416),Balwyn High School,2
Balwyn,35a Stroud St,4,h,1800000.0,17/09/2016,3103,Southern Metropolitan,5682,7.9,Boroondara City Council,"35a Stroud St,Balwyn,3103,Victoria,Australia",-37.8039894,145.079768,POINT (145.079768 -37.8039894),Balwyn High School,2
Balwyn,87 Yerrin St,3,h,1910000.0,17/09/2016,3103,Southern Metropolitan,5682,7.9,Boroondara City Council,"87 Yerrin St,Balwyn,3103,Victoria,Australia",-37.8108766,145.0845131,POINT (145.0845131 -37.8108766),Balwyn High School,2
Balwyn North,45 Dempster Av,5,h,1900000.0,17/09/2016,3104,Southern Metropolitan,7809,9.7,Boroondara City Council,"45 Dempster Av,Balwyn North,3104,Victoria,Australia",-37.7956556,145.09344130000002,POINT (145.0934413 -37.7956556),Balwyn High School,2
Balwyn North,45 Woodville St,4,h,1712000.0,17/09/2016,3104,Southern Metropolitan,7809,9.7,Boroondara City Council,"45 Woodville St,Balwyn North,3104,Victoria,Australia",-37.7873335,145.0928743,POINT (145.0928743 -37.7873335),Balwyn High School,2
Balwyn,5/95 Balwyn Rd,2,u,754000.0,18/03/2017,3103,Southern Metropolitan,5682,7.9,Boroondara City Council,"5/95 Balwyn Rd,Balwyn,3103,Victoria,Australia",-37.8078898,145.0822993,POINT (145.0822993 -37.8078898),Balwyn High School,2
Balwyn,20 Henley St,3,h,1605000.0,18/03/2017,3103,Southern Metropolitan,5682,7.9,Boroondara City Council,"20 Henley St,Balwyn,3103,Victoria,Australia",-37.806725899999996,145.07565590000002,POINT (145.0756559 -37.8067259),Balwyn High School,2
Balwyn North,9 Seattle St,4,h,1675000.0,18/03/2017,3104,Southern Metropolitan,7809,9.7,Boroondara City Council,"9 Seattle St,Balwyn North,3104,Victoria,Australia",-37.782976700000006,145.08820659999998,POINT (145.0882066 -37.78297670000001),Balwyn High School,2
Balwyn North,16 Sylvan St,4,t,1680000.0,18/03/2017,3104,Southern Metropolitan,7809,9.7,Boroondara City Council,"16 Sylvan St,Balwyn North,3104,Victoria,Australia",-37.798517700000005,145.0787299,POINT (145.0787299 -37.7985177),Balwyn High School,2
Deepdene,3/3 Meadow Gr,4,t,1745000.0,18/03/2017,3103,Southern Metropolitan,892,7.9,Boroondara City Council,"3/3 Meadow Gr,Deepdene,3103,Victoria,Australia",-37.8105973,145.066857,POINT (145.066857 -37.8105973),Balwyn High School,2
Balwyn,49 Metung St,5,h,3400000.0,18/06/2016,3103,Southern Metropolitan,5682,7.9,Boroondara City Council,"49 Metung St,Balwyn,3103,Victoria,Australia",-37.804641600000004,145.0710626,POINT (145.0710626 -37.8046416),Balwyn High School,2
Balwyn North,5 Echo Av,5,h,1540000.0,18/06/2016,3104,Southern Metropolitan,7809,9.7,Boroondara City Council,"5 Echo Av,Balwyn North,3104,Victoria,Australia",-37.7865494,145.0848996,POINT (145.0848996 -37.7865494),Balwyn High School,2
Balwyn North,9 Stephens St,5,h,4000000.0,18/06/2016,3104,Southern Metropolitan,7809,9.7,Boroondara City Council,"9 Stephens St,Balwyn North,3104,Victoria,Australia",-37.796991,145.0858325,POINT (145.0858325 -37.796991),Balwyn High School,2
Balwyn North,9 Sunburst Av,6,h,1860000.0,18/06/2016,3104,Southern Metropolitan,7809,9.7,Boroondara City Council,"9 Sunburst Av,Balwyn North,3104,Victoria,Australia",-37.79062570000001,145.0750874,POINT (145.0750874 -37.79062570000001),Balwyn High School,2
Balwyn North,31 Tuxen St,3,h,2900000.0,18/06/2016,3104,Southern Metropolitan,7809,9.7,Boroondara City Council,"31 Tuxen St,Balwyn North,3104,Victoria,Australia",-37.7979438,145.08699219999997,POINT (145.0869922 -37.7979438),Balwyn High School,2
Balwyn,7 Bruce St,3,h,1800000.0,18/08/2018,3103,Southern Metropolitan,5682,7.9,Boroondara City Council,"7 Bruce St,Balwyn,3103,Victoria,Australia",-37.806064500000005,145.0913738,POINT (145.0913738 -37.80606450000001),Balwyn High School,2
Balwyn,8 Porter Rd,5,h,1850000.0,18/08/2018,3103,Southern Metropolitan,5682,7.9,Boroondara City Council,"8 Porter Rd,Balwyn,3103,Victoria,Australia",-37.807074,145.0945763,POINT (145.0945763 -37.807074),Balwyn High School,2
Balwyn North,11 Kawarren St,4,h,1539000.0,18/08/2018,3104,Southern Metropolitan,7809,9.7,Boroondara City Council,"11 Kawarren St,Balwyn North,3104,Victoria,Australia",-37.784034399999996,145.0922361,POINT (145.0922361 -37.7840344),Balwyn High School,2
Deepdene,3/21 Terry St,2,h,808000.0,18/08/2018,3103,Southern Metropolitan,892,7.9,Boroondara City Council,"3/21 Terry St,Deepdene,3103,Victoria,Australia",-37.8108968,145.0692289,POINT (145.0692289 -37.8108968),Balwyn High School,2
Balwyn,2/216 Belmore Rd,2,u,780000.0,18/11/2017,3103,Southern Metropolitan,5682,7.9,Boroondara City Council,"2/216 Belmore Rd,Balwyn,3103,Victoria,Australia",-37.8044954,145.09072700000002,POINT (145.090727 -37.8044954),Balwyn High School,2
Balwyn,18 Hilda St,3,h,2010000.0,18/11/2017,3103,Southern Metropolitan,5682,7.9,Boroondara City Council,"18 Hilda St,Balwyn,3103,Victoria,Australia",-37.8048525,145.0758269,POINT (145.0758269 -37.8048525),Balwyn High School,2
Balwyn,2/4 Woods St,2,u,800000.0,18/11/2017,3103,Southern Metropolitan,5682,7.9,Boroondara City Council,"2/4 Woods St,Balwyn,3103,Victoria,Australia",-37.8053601,145.0876499,POINT (145.0876499 -37.8053601),Balwyn High School,2
Balwyn,9/132 Yarrbat Av,3,t,1675000.0,18/11/2017,3103,Southern Metropolitan,5682,7.9,Boroondara City Council,"9/132 Yarrbat Av,Balwyn,3103,Victoria,Australia",-37.809805299999994,145.0936989,POINT (145.0936989 -37.80980529999999),Balwyn High School,2
Balwyn North,43 Cityview Rd,4,h,1930000.0,18/11/2017,3104,Southern Metropolitan,7809,9.7,Boroondara City Council,"43 Cityview Rd,Balwyn North,3104,Victoria,Australia",-37.784544399999994,145.0798285,POINT (145.0798285 -37.78454439999999),Balwyn High School,2
Balwyn North,57 Cityview Rd,5,h,4050000.0,18/11/2017,3104,Southern Metropolitan,7809,9.7,Boroondara City Council,"57 Cityview Rd,Balwyn North,3104,Victoria,Australia",-37.784544399999994,145.0798285,POINT (145.0798285 -37.78454439999999),Balwyn High School,2
Balwyn North,25 Corby St,4,h,1800000.0,18/11/2017,3104,Southern Metropolitan,7809,9.7,Boroondara City Council,"25 Corby St,Balwyn North,3104,Victoria,Australia",-37.791645,145.0818356,POINT (145.0818356 -37.791645),Balwyn High School,2
Balwyn North,16 Hillview Rd,4,h,1720000.0,18/11/2017,3104,Southern Metropolitan,7809,9.7,Boroondara City Council,"16 Hillview Rd,Balwyn North,3104,Victoria,Australia",-37.78469129999999,145.0808401,POINT (145.0808401 -37.78469129999999),Balwyn High School,2
Balwyn North,51 Tuxen St,4,h,2890000.0,18/11/2017,3104,Southern Metropolitan,7809,9.7,Boroondara City Council,"51 Tuxen St,Balwyn North,3104,Victoria,Australia",-37.7979438,145.08699219999997,POINT (145.0869922 -37.7979438),Balwyn High School,2
Balwyn North,1/6 Osburn Av,4,t,1825000.0,21/04/2018,3104,Southern Metropolitan,7809,9.7,Boroondara City Council,"1/6 Osburn Av,Balwyn North,3104,Victoria,Australia",-37.7933255,145.0743967,POINT (145.0743967 -37.7933255),Balwyn High School,2
Balwyn,8 Yarrbat Av,5,h,3350000.0,21/10/2017,3103,Southern Metropolitan,5682,7.9,Boroondara City Council,"8 Yarrbat Av,Balwyn,3103,Victoria,Australia",-37.809805299999994,145.0936989,POINT (145.0936989 -37.80980529999999),Balwyn High School,2
Balwyn North,438 Balwyn Rd,3,h,1530000.0,21/10/2017,3104,Southern Metropolitan,7809,9.7,Boroondara City Council,"438 Balwyn Rd,Balwyn North,3104,Victoria,Australia",-37.794724,145.0848523,POINT (145.0848523 -37.794724),Balwyn High School,2
Balwyn North,5 Carnell Pl,3,h,1100000.0,21/10/2017,3104,Southern Metropolitan,7809,9.7,Boroondara City Council,"5 Carnell Pl,Balwyn North,3104,Victoria,Australia",-37.7916153,145.098696,POINT (145.098696 -37.7916153),Balwyn High School,2
Balwyn North,53 Ellsa St,3,h,2350000.0,21/10/2017,3104,Southern Metropolitan,7809,9.7,Boroondara City Council,"53 Ellsa St,Balwyn North,3104,Victoria,Australia",-37.793818,145.09635459999998,POINT (145.0963546 -37.793818),Balwyn High School,2
Balwyn North,4 Lawson St,2,h,1754000.0,21/10/2017,3104,Southern Metropolitan,7809,9.7,Boroondara City Council,"4 Lawson St,Balwyn North,3104,Victoria,Australia",-37.801555900000004,145.068361,POINT (145.068361 -37.8015559),Balwyn High School,2
Balwyn,12 Power St,3,h,1670000.0,22/04/2017,3103,Southern Metropolitan,5682,7.9,Boroondara City Council,"12 Power St,Balwyn,3103,Victoria,Australia",-37.8115245,145.0791055,POINT (145.0791055 -37.8115245),Balwyn High School,2
Balwyn,27A Yerrin St,3,t,1680000.0,22/04/2017,3103,Southern Metropolitan,5682,7.9,Boroondara City Council,"27A Yerrin St,Balwyn,3103,Victoria,Australia",-37.8108766,145.0845131,POINT (145.0845131 -37.8108766),Balwyn High School,2
Balwyn,34 Monash Av,4,h,1947000.0,22/05/2016,3103,Southern Metropolitan,5682,7.9,Boroondara City Council,"34 Monash Av,Balwyn,3103,Victoria,Australia",-37.808041100000004,145.07156319999999,POINT (145.0715632 -37.8080411),Balwyn High School,2
Balwyn North,1 Morris St,6,h,1900000.0,22/05/2016,3104,Southern Metropolitan,7809,9.7,Boroondara City Council,"1 Morris St,Balwyn North,3104,Victoria,Australia",-37.799533000000004,145.07781440000002,POINT (145.0778144 -37.799533),Balwyn High School,2
Balwyn North,85a Woodville St,3,h,1335000.0,22/05/2016,3104,Southern Metropolitan,7809,9.7,Boroondara City Council,"85a Woodville St,Balwyn North,3104,Victoria,Australia",-37.7873335,145.0928743,POINT (145.0928743 -37.7873335),Balwyn High School,2
Balwyn,5 Tedstone Cr,5,h,2400000.0,22/07/2017,3103,Southern Metropolitan,5682,7.9,Boroondara City Council,"5 Tedstone Cr,Balwyn,3103,Victoria,Australia",-37.811123200000004,145.07652439999998,POINT (145.0765244 -37.8111232),Balwyn High School,2
Balwyn North,4 Carrington St,4,h,1750000.0,22/07/2017,3104,Southern Metropolitan,7809,9.7,Boroondara City Council,"4 Carrington St,Balwyn North,3104,Victoria,Australia",-37.8028367,145.0856955,POINT (145.0856955 -37.8028367),Balwyn High School,2
Balwyn,25 Kalimna St,5,h,2665000.0,22/08/2016,3103,Southern Metropolitan,5682,7.9,Boroondara City Council,"25 Kalimna St,Balwyn,3103,Victoria,Australia",-37.8089196,145.07847560000002,POINT (145.0784756 -37.8089196),Balwyn High School,2
Balwyn,7 Naroo St,4,h,1801000.0,22/08/2016,3103,Southern Metropolitan,5682,7.9,Boroondara City Council,"7 Naroo St,Balwyn,3103,Victoria,Australia",-37.8041119,145.068976,POINT (145.068976 -37.8041119),Balwyn High School,2
Balwyn,6/11 Yarrbat Av,3,t,1100000.0,22/08/2016,3103,Southern Metropolitan,5682,7.9,Boroondara City Council,"6/11 Yarrbat Av,Balwyn,3103,Victoria,Australia",-37.809805299999994,145.0936989,POINT (145.0936989 -37.80980529999999),Balwyn High School,2
Balwyn North,13 Bernard St,3,h,1600000.0,22/08/2016,3104,Southern Metropolitan,7809,9.7,Boroondara City Council,"13 Bernard St,Balwyn North,3104,Victoria,Australia",-37.7869632,145.08053069999997,POINT (145.0805307 -37.7869632),Balwyn High School,2
Balwyn North,41 Helston St,4,h,1900000.0,22/08/2016,3104,Southern Metropolitan,7809,9.7,Boroondara City Council,"41 Helston St,Balwyn North,3104,Victoria,Australia",-37.7850823,145.0943493,POINT (145.0943493 -37.7850823),Balwyn High School,2
Balwyn,16 Freeman St,4,h,2394000.0,22/09/2018,3103,Southern Metropolitan,5682,7.9,Boroondara City Council,"16 Freeman St,Balwyn,3103,Victoria,Australia",-37.807789,145.07687909999999,POINT (145.0768791 -37.807789),Balwyn High School,2
Balwyn,18 Parkdale Av,3,h,1800000.0,22/09/2018,3103,Southern Metropolitan,5682,7.9,Boroondara City Council,"18 Parkdale Av,Balwyn,3103,Victoria,Australia",-37.8086326,145.09167019999998,POINT (145.0916702 -37.8086326),Balwyn High School,2
Balwyn North,13 McShane St,5,h,2800000.0,22/09/2018,3104,Southern Metropolitan,7809,9.7,Boroondara City Council,"13 McShane St,Balwyn North,3104,Victoria,Australia",-37.797247600000006,145.0890884,POINT (145.0890884 -37.79724760000001),Balwyn High School,2
Balwyn North,89 Panoramic Rd,4,h,1650000.0,22/09/2018,3104,Southern Metropolitan,7809,9.7,Boroondara City Council,"89 Panoramic Rd,Balwyn North,3104,Victoria,Australia",-37.7909164,145.0797246,POINT (145.0797246 -37.7909164),Balwyn High School,2
Balwyn North,11 Highview Rd,5,h,1500000.0,23/04/2016,3104,Southern Metropolitan,7809,9.7,Boroondara City Council,"11 Highview Rd,Balwyn North,3104,Victoria,Australia",-37.7826648,145.07952230000004,POINT (145.0795223 -37.7826648),Balwyn High School,2
Balwyn North,1 Buchanan Av,4,h,1600000.0,23/06/2018,3104,Southern Metropolitan,7809,9.7,Boroondara City Council,"1 Buchanan Av,Balwyn North,3104,Victoria,Australia",-37.7993855,145.0767676,POINT (145.0767676 -37.7993855),Balwyn High School,2
Balwyn North,4 Gould St,3,h,1530000.0,23/06/2018,3104,Southern Metropolitan,7809,9.7,Boroondara City Council,"4 Gould St,Balwyn North,3104,Victoria,Australia",-37.7836736,145.0858813,POINT (145.0858813 -37.7836736),Balwyn High School,2
Balwyn North,39 Kawarren St,4,h,1450000.0,23/06/2018,3104,Southern Metropolitan,7809,9.7,Boroondara City Council,"39 Kawarren St,Balwyn North,3104,Victoria,Australia",-37.784034399999996,145.0922361,POINT (145.0922361 -37.7840344),Balwyn High School,2
Balwyn North,8 Seattle St,4,h,1600000.0,23/06/2018,3104,Southern Metropolitan,7809,9.7,Boroondara City Council,"8 Seattle St,Balwyn North,3104,Victoria,Australia",-37.782976700000006,145.08820659999998,POINT (145.0882066 -37.78297670000001),Balwyn High School,2
Balwyn,12 Belmore Rd,5,h,2580000.0,23/09/2017,3103,Southern Metropolitan,5682,7.9,Boroondara City Council,"12 Belmore Rd,Balwyn,3103,Victoria,Australia",-37.8044954,145.09072700000002,POINT (145.090727 -37.8044954),Balwyn High School,2
Balwyn,3 Collins Ct,3,h,1420000.0,23/09/2017,3103,Southern Metropolitan,5682,7.9,Boroondara City Council,"3 Collins Ct,Balwyn,3103,Victoria,Australia",-37.8052309,145.08944430000003,POINT (145.0894443 -37.8052309),Balwyn High School,2
Balwyn,8 Power St,3,h,2325000.0,23/09/2017,3103,Southern Metropolitan,5682,7.9,Boroondara City Council,"8 Power St,Balwyn,3103,Victoria,Australia",-37.8115245,145.0791055,POINT (145.0791055 -37.8115245),Balwyn High School,2
Balwyn,17 Parkdale Av,4,h,1700000.0,23/12/2017,3103,Southern Metropolitan,5682,7.9,Boroondara City Council,"17 Parkdale Av,Balwyn,3103,Victoria,Australia",-37.8086326,145.09167019999998,POINT (145.0916702 -37.8086326),Balwyn High School,2
Balwyn North,3/2 Heather St,4,h,1420000.0,23/12/2017,3104,Southern Metropolitan,7809,9.7,Boroondara City Council,"3/2 Heather St,Balwyn North,3104,Victoria,Australia",-37.801364299999996,145.08085780000002,POINT (145.0808578 -37.8013643),Balwyn High School,2
Balwyn North,7 Lawson St,4,h,2640000.0,23/12/2017,3104,Southern Metropolitan,7809,9.7,Boroondara City Council,"7 Lawson St,Balwyn North,3104,Victoria,Australia",-37.801555900000004,145.068361,POINT (145.068361 -37.8015559),Balwyn High School,2
Balwyn North,23 Oravel St,5,t,950000.0,23/12/2017,3104,Southern Metropolitan,7809,9.7,Boroondara City Council,"23 Oravel St,Balwyn North,3104,Victoria,Australia",-37.7861782,145.09641159999998,POINT (145.0964116 -37.7861782),Balwyn High School,2
Balwyn North,9 Renown St,4,h,1960000.0,23/12/2017,3104,Southern Metropolitan,7809,9.7,Boroondara City Council,"9 Renown St,Balwyn North,3104,Victoria,Australia",-37.8014338,145.0927267,POINT (145.0927267 -37.8014338),Balwyn High School,2
Balwyn North,9 Chelmsford St,4,h,2440000.0,24/02/2018,3104,Southern Metropolitan,7809,9.7,Boroondara City Council,"9 Chelmsford St,Balwyn North,3104,Victoria,Australia",-37.794772200000004,145.0882346,POINT (145.0882346 -37.7947722),Balwyn High School,2
Balwyn North,13 Corby St,3,h,1800000.0,24/02/2018,3104,Southern Metropolitan,7809,9.7,Boroondara City Council,"13 Corby St,Balwyn North,3104,Victoria,Australia",-37.791645,145.0818356,POINT (145.0818356 -37.791645),Balwyn High School,2
Balwyn North,33 Ferdinand Av,3,h,2100000.0,24/02/2018,3104,Southern Metropolitan,7809,9.7,Boroondara City Council,"33 Ferdinand Av,Balwyn North,3104,Victoria,Australia",-37.7946721,145.0940335,POINT (145.0940335 -37.7946721),Balwyn High School,2
Balwyn North,11 Wynyard Cr,5,h,2000000.0,24/02/2018,3104,Southern Metropolitan,7809,9.7,Boroondara City Council,"11 Wynyard Cr,Balwyn North,3104,Victoria,Australia",-37.803270700000006,145.09259619999997,POINT (145.0925962 -37.80327070000001),Balwyn High School,2
Balwyn,2/10 Brenbeal St,2,u,782000.0,24/03/2018,3103,Southern Metropolitan,5682,7.9,Boroondara City Council,"2/10 Brenbeal St,Balwyn,3103,Victoria,Australia",-37.8112846,145.087244,POINT (145.087244 -37.8112846),Balwyn High School,2
Balwyn,2/4 Winmalee Rd,3,u,1550000.0,24/03/2018,3103,Southern Metropolitan,5682,7.9,Boroondara City Council,"2/4 Winmalee Rd,Balwyn,3103,Victoria,Australia",-37.8069099,145.08497549999998,POINT (145.0849755 -37.8069099),Balwyn High School,2
Balwyn,18 Yongala St,4,h,2888000.0,24/03/2018,3103,Southern Metropolitan,5682,7.9,Boroondara City Council,"18 Yongala St,Balwyn,3103,Victoria,Australia",-37.8055591,145.0772501,POINT (145.0772501 -37.8055591),Balwyn High School,2
Balwyn North,5 Ellendale St,3,h,1700000.0,24/03/2018,3104,Southern Metropolitan,7809,9.7,Boroondara City Council,"5 Ellendale St,Balwyn North,3104,Victoria,Australia",-37.789317,145.0925139,POINT (145.0925139 -37.789317),Balwyn High School,2
Balwyn North,35 Fintonia St,4,t,1950000.0,24/03/2018,3104,Southern Metropolitan,7809,9.7,Boroondara City Council,"35 Fintonia St,Balwyn North,3104,Victoria,Australia",-37.788562899999995,145.0948629,POINT (145.0948629 -37.7885629),Balwyn High School,2
Balwyn North,11 Kelvinside St,4,h,1550000.0,24/03/2018,3104,Southern Metropolitan,7809,9.7,Boroondara City Council,"11 Kelvinside St,Balwyn North,3104,Victoria,Australia",-37.78355139999999,145.0956468,POINT (145.0956468 -37.78355139999999),Balwyn High School,2
Balwyn,3 Narrak Rd,5,h,2180000.0,24/06/2017,3103,Southern Metropolitan,5682,7.9,Boroondara City Council,"3 Narrak Rd,Balwyn,3103,Victoria,Australia",-37.8072778,145.096342,POINT (145.096342 -37.8072778),Balwyn High School,2
Balwyn,1/136 Yarrbat Av,2,h,1231000.0,24/06/2017,3103,Southern Metropolitan,5682,7.9,Boroondara City Council,"1/136 Yarrbat Av,Balwyn,3103,Victoria,Australia",-37.809805299999994,145.0936989,POINT (145.0936989 -37.80980529999999),Balwyn High School,2
Balwyn North,36 Viewhill Rd,4,h,1863000.0,24/06/2017,3104,Southern Metropolitan,7809,9.7,Boroondara City Council,"36 Viewhill Rd,Balwyn North,3104,Victoria,Australia",-37.790680200000004,145.0891251,POINT (145.0891251 -37.7906802),Balwyn High School,2
Balwyn North,11 Walnut Rd,4,h,1700000.0,24/06/2017,3104,Southern Metropolitan,7809,9.7,Boroondara City Council,"11 Walnut Rd,Balwyn North,3104,Victoria,Australia",-37.7900277,145.09043269999998,POINT (145.0904327 -37.7900277),Balwyn High School,2
Balwyn,27 Metung St,4,h,2410000.0,24/09/2016,3103,Southern Metropolitan,5682,7.9,Boroondara City Council,"27 Metung St,Balwyn,3103,Victoria,Australia",-37.804641600000004,145.0710626,POINT (145.0710626 -37.8046416),Balwyn High School,2
Balwyn North,3/48 Alpha St,2,u,1040000.0,24/09/2016,3104,Southern Metropolitan,7809,9.7,Boroondara City Council,"3/48 Alpha St,Balwyn North,3104,Victoria,Australia",-37.7989039,145.0937968,POINT (145.0937968 -37.7989039),Balwyn High School,2
Balwyn,34 Nott St,4,h,2275000.0,25/02/2017,3103,Southern Metropolitan,5682,7.9,Boroondara City Council,"34 Nott St,Balwyn,3103,Victoria,Australia",-37.806635299999996,145.0770396,POINT (145.0770396 -37.8066353),Balwyn High School,2
Balwyn North,66 Almond St,3,h,1520000.0,25/02/2017,3104,Southern Metropolitan,7809,9.7,Boroondara City Council,"66 Almond St,Balwyn North,3104,Victoria,Australia",-37.7905467,145.0879874,POINT (145.0879874 -37.7905467),Balwyn High School,2
Balwyn North,34 Kawarren St,6,h,1900000.0,25/02/2017,3104,Southern Metropolitan,7809,9.7,Boroondara City Council,"34 Kawarren St,Balwyn North,3104,Victoria,Australia",-37.784034399999996,145.0922361,POINT (145.0922361 -37.7840344),Balwyn High School,2
Balwyn North,31 MacEdon Av,4,h,2006000.0,25/02/2017,3104,Southern Metropolitan,7809,9.7,Boroondara City Council,"31 MacEdon Av,Balwyn North,3104,Victoria,Australia",-37.789336799999994,145.0738142,POINT (145.0738142 -37.78933679999999),Balwyn High School,2
Balwyn,2/5 Burroughs Rd,3,u,1450000.0,25/08/2018,3103,Southern Metropolitan,5682,7.9,Boroondara City Council,"2/5 Burroughs Rd,Balwyn,3103,Victoria,Australia",-37.806137299999996,145.094748,POINT (145.094748 -37.8061373),Balwyn High School,2
Balwyn North,53 Hosken St,4,h,1558000.0,25/08/2018,3104,Southern Metropolitan,7809,9.7,Boroondara City Council,"53 Hosken St,Balwyn North,3104,Victoria,Australia",-37.7979438,145.08699219999997,POINT (145.0869922 -37.7979438),Balwyn High School,2
